,listing_id,pos,neu,neg,compound,name,latitude,longitude,review_scores_rating,neighbourhood_cleansed,distance_airport,distance_tophub,distance_prudential,distance_royale,distance_harvard
3195,22162098,1.0,0.0,0.0,0.6588,Beautiful 2 Bedroom in The heart of Boston!,42.33220506655515,-71.11281146053095,80.0,Mission Hill,5.76514550901253,1.7818610210309884,1.862613708302028,2.7111107115721302,3.581265661201509
4001,26362139,1.0,0.0,0.0,0.4404,Two Bedroom in Boston's Back Bay #201,42.34676074875068,-71.07973916824682,100.0,Back Bay,3.818833526204261,0.21115442462339,0.1447031120831396,0.7582021854988172,3.8157221987565575
4374,28492660,1.0,0.0,0.0,0.6588,Classic 2BR in South End by Sonder,42.34296092308364,-71.06531397236114,100.0,South End,3.252235400689367,0.980293880280417,0.9269697351202703,0.4804886854773115,4.568061204009935
4811,30505480,0.902,0.098,0.0,0.44815,Sophisticated 2BR in Lower Allston by Sonder,42.364704273353865,-71.13126758830899,100.0,Allston,6.227947673187092,2.732877249599675,2.7744327508781854,3.515281468276505,1.1481131503845559
4874,31261651,0.83,0.17,0.0,0.8676,(116-9) Back Bay - Perfect Loft Studio,42.353872217411535,-71.07760339766511,80.0,Back Bay,3.5739772631989397,0.600067161818078,0.5282396958812484,0.6744160709622384,3.6331814283272594
4515,29053226,0.815,0.185,0.0,0.6588,Sleek 2BR in South End by Sonder,42.33664187292285,-71.06753085703805,100.0,South End,3.5765209156494664,1.0783057109689116,1.055587259194475,0.9220429475709417,4.7397961087348905
989,8336364,0.815,0.185,0.0,0.6588,Beautiful Modern Condo,42.31199460127128,-71.11045089791808,100.0,Jamaica Plain,6.352902347393584,2.7447057893943,2.8163850673029147,3.484057475230481,4.937302357584876
4460,28833907,0.815,0.185,0.0,0.6588,6 Bedroom close to Fenway Park & Downtown Boston,42.32482053434636,-71.1046167126912,100.0,Jamaica Plain,5.620584154598012,1.8366611499735779,1.9116816500111369,2.64616126100912,4.215570460133271
4003,26363458,0.815,0.185,0.0,0.6588,One Bedroom on Tremont #308,42.33085127106002,-71.09954613013532,100.0,Mission Hill,5.192324002280631,1.3472315121891996,1.4229468344394063,2.1821059685918898,3.966731287688155
1631,14299184,0.8079999999999999,0.192,0.0,0.9273,One Bedroom located in the West End,42.3640904590381,-71.0689242912307,100.0,West End,3.0383573956001166,1.4336252737924615,1.3611023312706962,0.9931572424593745,3.756022665231171
3306,22651826,0.804,0.196,0.0,0.6249,Modernly Furnished 1-BR in The Heart of Boston!,42.34406121832926,-71.1020007585537,100.0,Fenway,4.958482234234505,0.9446707900835944,1.0199742556753224,1.909302861236606,3.1379669061882454
2578,19602772,0.8,0.2,0.0,0.6124,Magnificent 3-BR close to Tufts Medical Center,42.34886759689663,-71.06047461971283,100.0,Chinatown,2.848964952047048,1.207772756042474,1.1348726983248891,0.27010947936123236,4.567087550195519
3197,22163474,0.782,0.218,0.0,0.8955,Exquisite 1 Bedroom by Fenway Park!,42.346365082331964,-71.08017598528697,100.0,Back Bay,3.849211253614227,0.18840101589495803,0.1313850113505109,0.7877254604268197,3.8147084920049146
2287,18445635,0.777,0.223,0.0,0.54,High-End Lavish 1-BR Boston Apartment!,42.34520851448182,-71.10021589272407,80.0,Fenway,4.847767760515749,0.8428015262742782,0.91593612459721,1.8041361053921603,3.1322091366438625
2861,21010620,0.759,0.24100000000000002,0.0,0.49305,Lux 1BR Apt in Bulfinch Triangle w/gym & WiFi,42.36423718600271,-71.06145319461739,100.0,Downtown,2.6558184331815156,1.6765241490066054,1.5984388377059242,1.0102750359666082,4.11980933885492
4248,27802277,0.7559999999999999,0.244,0.0,0.4754,Posh Downtown Boston 2BR Apt + Magnificent Views!,42.351346705168574,-71.062017753435,100.0,Chinatown,2.857984062254207,1.1664554753132104,1.0889503803002047,0.20618490029626002,4.417620320963823
4899,31812646,0.755,0.245,0.0,0.9231,Suite in the South End | Access to a Coworking Space + Fitness Center,42.34488494075863,-71.07030689895393,100.0,South End,3.420938503092528,0.7025062088288662,0.6443565564512737,0.42420001771490473,4.2822315924986425
2635,19926609,0.746,0.254,0.0,0.43095,Modern 1BR Boston Furnished Apt + Gym!,42.365486246530544,-71.06818627027846,100.0,West End,2.9987711752010062,1.535396035584577,1.4633077598265622,1.0828187052046694,3.7647058334494954
4137,27286080,0.7440000000000001,0.256,0.0,0.4404,Boston,42.27206338704543,-71.08871861091305,100.0,Mattapan,7.622664458976639,5.144878589126598,5.191832920020591,5.503231445608345,7.903349504816991
4007,26367912,0.7440000000000001,0.256,0.0,0.4404,Newly Renovated Loft Apartment in Back Bay/Fenway,42.34530602739671,-71.08899920621886,60.0,Fenway,4.299310579685217,0.27655739358521336,0.35524208681208586,1.2418204599920146,3.5193374433200395
1976,16179346,0.7390000000000001,0.261,0.0,0.8176,"xlLarge, Clean, Comfortable, 5-6 stop to Downtown",42.383440992459015,-70.99916563044323,100.0,East Boston,1.3422283891203253,5.028388082101834,4.947662644840747,4.111037276365065,7.157313272216858
927,7939556,0.737,0.263,0.0,0.4215,Andrew Sq - Quiet Yellow Room,42.3258608188432,-71.05796513914946,100.0,Dorchester,3.6953683976643483,1.946680478983527,1.9335558010279805,1.7054961096583718,5.597420998113523
4031,26452827,0.735,0.265,0.0,0.9313,"Private Room in Boston, Bus 57, 15 min to Airport!",42.34922496161518,-71.16487727946685,100.0,Brighton,8.028902027052318,4.152786225833397,4.219199722373361,5.085311674224096,2.5232839961558273
4609,29537596,0.732,0.268,0.0,0.8481,Cozy Downtown Studio in Historic Windsor Building,42.356107796678685,-71.06240609814377,100.0,Downtown,2.7813680163850716,1.2820314163556867,1.201282290877144,0.45652434884738663,4.260439286519116
4165,27459750,0.7040000000000001,0.29600000000000004,0.0,0.7991,"Lux 2BR 1BA Apt w/rooftop deck, gym, WiFi",42.33108410411615,-71.11148464031297,100.0,Mission Hill,5.734694323593797,1.7711568701281137,1.8516835002978047,2.6872352755735984,3.678584874586749
3615,23892862,0.7,0.3,0.0,0.62795,"Pretty Bedroom in Brighton, Boston: BC/BU/Harvard",42.34595581848691,-71.15041943039073,100.0,Brighton,7.33541235258498,3.4086444641421645,3.477573218597974,4.353586654152972,2.4436901839359972
4163,27459736,0.7,0.3,0.0,0.7906,"Lux 2BR 1BA Apt w/rooftop deck, gym, WiFi",42.330994258489476,-71.11122338308208,80.0,Mission Hill,5.725117500110026,1.7642461850990574,1.8447254930048695,2.678555351859743,3.689444329402324
3000,21515803,0.6980000000000001,0.302,0.0,0.6623,Whimsical Condo by Boston's Back Bay!,42.346095390934885,-71.07937455459276,70.0,Back Bay,3.8172596522953364,0.23097898533407046,0.1764434836322942,0.7551486118357489,3.8585304378159733
3916,25837184,0.6945,0.3055,0.0,0.635016667,"Loft in Back Bay w/pool, gym, concierge",42.3450383816826,-71.0891474351331,100.0,Fenway,4.312537833486445,0.2897769257526416,0.3692125300151003,1.2539968718913408,3.526564242143248
1212,10860611,0.692666667,0.307333333,0.0,0.7787666670000001,Room in charming apt,42.350294187619625,-71.0860715347519,100.0,Back Bay,4.05473936620912,0.28450327078325455,0.2835630724253168,1.0506701139805585,3.4100353101050853
3476,23379361,0.69225,0.30774999999999997,0.0,0.5771999999999999,Posh Studio in Fenway by Sonder,42.34459801953263,-71.10101345360768,90.0,Fenway,4.8991772772646485,0.8887116212145079,0.9631461962068306,1.852219944805253,3.139509340628574
3734,24554520,0.6920000000000001,0.308,0.0,0.6696,Luxury Oasis in Boston Rm 1,42.307055728247796,-71.0706425455303,100.0,Dorchester,5.108793667293785,2.8063591984431167,2.83295224921461,2.970012255216015,6.149516226787712
2070,16961217,0.6884999999999999,0.3115,0.0,0.73925,"Exeter Street, Back Bay Luxury 1bd Apartment-",42.348956888244274,-71.07927501648075,90.0,Back Bay,3.7472311308047286,0.2885332037833116,0.20795107031250565,0.705531194241938,3.7449490293854195
4883,31438747,0.6779999999999999,0.322,0.0,0.8139,COZY & CLEAN APT NEXT TO PRUDENTIAL CENTER,42.340397704807565,-71.08921641112161,90.0,Fenway,4.431674625924163,0.5038224924173098,0.5782671721070642,1.3782619014910844,3.752609741058773
4606,29536529,0.6745000000000001,0.3255,0.0,0.71345,Quaint Studio in Boston Theatre District Downtown,42.354766304182185,-71.06236200207947,70.0,Downtown,2.8024750825378897,1.2387755980014101,1.1583361914779182,0.37233072876005163,4.299709822981229
3417,23251400,0.672,0.32799999999999996,0.0,0.8481,Plush 1 BR in South Boston near Seaport,42.33681338118983,-71.03709633496713,100.0,South Boston,2.435059347582063,2.4859152643976206,2.4326208525114246,1.7151975612924129,6.018042351985734
4876,31295996,0.6709999999999999,0.32899999999999996,0.0,0.57905,Cozy Studio w/ plenty of amenities & city views,42.38876174318421,-71.00269385573037,100.0,East Boston,1.6372777975728223,5.075142391786471,4.9944619924320115,4.187995089791046,6.997504877697728
1094,9445192,0.667,0.33299999999999996,0.0,0.6878666665,Cozy Room in Brookline Apartment,42.34798839891038,-71.13939137582845,90.0,Allston,6.754624246740099,2.8455467208624707,2.912500158894011,3.7826366359073087,2.2321835164887878
190,1203130,0.666666667,0.333333333,0.0,0.337866667,1or 2 bedroom w/stunning city views,42.3812932266171,-71.06704191660026,94.0,Charlestown,3.133019838882105,2.5499245711861445,2.4866743019286917,2.1667829179579834,3.681379296091746
1255,11528125,0.664,0.336,0.0,0.8718,One bedroom with TV and balcony,42.352683672246144,-71.12124797327608,100.0,Allston,5.7844383828053605,1.9614670753013097,2.0194414205583264,2.857632704634062,2.112650939902052
4806,30505229,0.6635,0.3365,0.0,0.69867,Intimate Studio in Fenway by Sonder,42.34328024861933,-71.10157759597483,100.0,Fenway,4.954343168901683,0.9347633505506757,1.011651779681332,1.900419177902792,3.194072105858234
4279,28012051,0.66083333325,0.33916666675,0.0,0.66625,1 Private Bedroom close  Fenway & Downtown Boston,42.32564188061573,-71.10462198196066,90.0,Jamaica Plain,5.592617045092428,1.7908973237683825,1.8664522109639319,2.6095952964815083,4.163997609653988
4843,30916057,0.659611111,0.34038888900000003,0.0,0.6804555556666667,Roxbury 301,42.31710879753229,-71.08948323924182,100.0,Roxbury,5.285229231602583,2.0501362336356737,2.103478960502846,2.574933531885645,5.045705626666881
2705,20355160,0.654,0.34600000000000003,0.0,0.5400666670000001,Plush Bluebird 2-BR Boston Apt + gym & Roof Deck,42.33194897483461,-71.11110687933382,100.0,Mission Hill,5.6924577059688035,1.7201726661526786,1.8008113146413383,2.6417597891979434,3.6310509714369883
4654,29728508,0.6497499999999999,0.35025,0.0,0.7727250000000001,Support Local Businesses by Staying with GoLocal!,42.364692591983534,-71.04102138390684,100.0,East Boston,1.6095448565002515,2.526111023452465,2.4454259686779745,1.6177562050435768,5.127817136524323
4740,30227546,0.6485,0.3515,0.0,0.6726,The WOW 2 BDR apartment! Downtown Boston area #1,42.33543676038485,-71.03576879751938,100.0,South Boston,2.4757675481802153,2.5780402929266364,2.5264802167321165,1.8236292773428806,6.124593125983498
4294,28073743,0.646,0.354,0.0,0.75345,Boston Multi-unit building,42.32876659617011,-71.1121731937641,90.0,Jamaica Plain,5.834767402144728,1.8985383696620537,1.978596538867158,2.798219437508057,3.8140576742620302
3881,25486049,0.645888889,0.34400000000000003,0.010111110999999999,0.6781111109999999,Luxury Studio in the heart of the City,42.34499774678055,-71.08792636797456,73.0,Fenway,4.254496392898379,0.23354627179063933,0.3140166059599008,1.1946903276611718,3.57393948480356
2881,21105981,0.642,0.358,0.0,0.3735,-Luxury 2 bedroom Apartment by TD Gardens!,42.3640150452769,-71.0599365986403,100.0,Downtown,2.578849735487131,1.7197480787273711,1.640897073529905,1.0145088121633843,4.198699814567107
1167,10118091,0.63975,0.36024999999999996,0.0,0.47602500000000003,Ultra Modern Furnished Boston apt in West End,42.36523377941854,-71.0677963849673,90.0,West End,2.978917676688758,1.5311832631233198,1.4584705344877482,1.063192573747958,3.7886724822253477
4025,26450789,0.6391666666666667,0.36083333333333334,0.0,0.5793333333333334,Hip 2BR in Lower Allston by Sonder,42.3646082005054,-71.13091789983241,93.0,Allston,6.210123798651074,2.7139325714675255,2.755435163884226,3.4962287189754973,1.1605772341350706
2063,16898190,0.6355,0.3645,0.0,0.67355,Private bedroom in Brighton,42.35550332059611,-71.15977123204028,100.0,Brighton,7.718704588156486,3.9361408552039343,3.9970014284850475,4.838794532253185,2.0172327269124897
4869,31212152,0.632,0.368,0.0,0.7222,1 Private Bedroom close Fenway & Downtown Boston,42.325427413094346,-71.10603351861569,60.0,Jamaica Plain,5.662843586948706,1.8464008432404933,1.922672068361823,2.674743899350727,4.14752026072376
4697,29929936,0.6304166665,0.3695833335,0.0,0.5483416665,Lily Room/Harvard Business School/free parking+早餐,42.353393293758295,-71.15242804787509,100.0,Brighton,7.359793768394947,3.543004140517962,3.6051446804621565,4.454014810256764,1.9825407150315197
4587,29481609,0.627,0.373,0.0,0.5684,3  Bedroom close to Fenway Park & Downtown Boston,42.32480009204448,-71.10528070940559,100.0,Jamaica Plain,5.650741224091075,1.857694783292079,1.933130267947465,2.6728714425418483,4.202788439641691
4611,29539387,0.62575,0.37425,0.0,0.673825,Boston Commons Condos Studio 8F,42.35158918438082,-71.06551273171091,100.0,Downtown,3.0211848045646987,1.00201990225616,0.9231467350565409,0.11523169496686753,4.251047670319067
4879,31364150,0.624,0.376,0.0,0.69955,1 BR in Back Bay. Only 2 min walk from Newbury St!,42.350588081315315,-71.08983414114464,100.0,Back Bay,4.235980661804605,0.4157727849865321,0.4436793721015446,1.2438423813981532,3.246348801337573
4541,29186224,0.6217380953333334,0.36821428566666664,0.010047619,0.39653333333333335,"Walk to redline, minuets to downtown, MGH, seaport",42.293026952502,-71.0624001209527,93.0,Dorchester,5.692420580899166,3.8519217885147072,3.8747178400245668,3.930175982829635,7.1890596871335
1501,13477286,0.6203333329999999,0.379666667,0.0,0.726433333,Spacious 3BR in the South End near Copley Square,42.34565356501126,-71.0765050295693,100.0,South End,3.691438828820833,0.38075315930641,0.32458021714311985,0.6332267353695736,3.993880639505073
3727,24519241,0.617391666625,0.382608333375,0.0,0.721079166625,Lux 2BR Apt in Boston Seaport w/WiFi,42.33625660973936,-71.03528411186345,93.0,South Boston,2.414768310161949,2.5856702111143957,2.532631196332679,1.8143812889902895,6.117646038716832
4625,29585373,0.6162222223333332,0.36033333333333334,0.02344444433333333,0.5913833333333333,Studio Apartment -- Next to Airport,42.380177594690025,-71.03223235778337,100.0,East Boston,1.5343008547863897,3.5184055515278625,3.438639766629495,2.6964792930056065,5.4621423222830074
4378,28492737,0.6154444443333333,0.38455555566666666,0.0,0.3568083333333334,Chic 2BR in South End by Sonder,42.34471639404196,-71.06613897338848,100.0,South End,3.2335016944503403,0.9152995815452277,0.8551893012610966,0.36040108072121624,4.46540240444076
937,8029788,0.615,0.385,0.0,0.81755,Minutes From Fenway,42.34774608970789,-71.13870237274399,100.0,Allston,6.722989319550725,2.809742685190975,2.876945321006933,3.748022073374387,2.2488456837273807
1168,10118379,0.611,0.389,0.0,0.54461,Lux Furnished 1-BR Apartment at West End!,42.36318985341243,-71.06910537918141,100.0,West End,3.0504007186450006,1.3763229482718091,1.3031601380584261,0.9337618721557681,3.766260079820208
3422,23253472,0.608666667,0.39133333299999995,0.0,0.518733333,Supreme 2 Bedroom in The Heart of South Boston!,42.335414906259416,-71.03646667176112,100.0,South Boston,2.49654250507529,2.5443900131640858,2.4931381498749254,1.7946908302537037,6.094571396834078
4508,29030965,0.6064999999999999,0.39349999999999996,0.0,0.6609437499999999,"Bright, modern and green JP with parking",42.3080692483969,-71.11727607359377,100.0,Jamaica Plain,6.794960896213327,3.1579630648845147,3.2314843256834425,3.9192415184191813,5.109567271228936
1782,15073943,0.601333333,0.39866666700000003,0.0,0.342266667,2 Bedroom in Beacon Hill,42.3578759688881,-71.06956994323656,100.0,Beacon Hill,3.1157204626741435,1.0720441515495516,0.9940934029637172,0.5863265870382021,3.875372064954105
2134,17508585,0.597666667,0.40233333299999996,0.0,0.5076666670000001,Trendy Neighborhood Southie Pad| Studio 1BR 1BA #7,42.33479391499398,-71.04349574482801,80.0,South Boston,2.744578648359901,2.219114149763717,2.172350219005683,1.5381632450957579,5.810749813624804
3936,25975436,0.594,0.406,0.0,0.6588,Stay in a GoLocal American-Made Suite in Back Bay!,42.346430002153376,-71.07940391874911,80.0,Back Bay,3.81057656855317,0.227720580952464,0.16686490078146737,0.7488098566918046,3.8432324777838502
4513,29038749,0.5920000000000001,0.408,0.0,0.6997,A cute spot in Back Bay,42.3540422695806,-71.07705592855791,100.0,Back Bay,3.544021251483552,0.6251807205604927,0.5522396514978557,0.6539021884607047,3.6515847833541413
1163,10116601,0.5915,0.33899999999999997,0.0695,0.452875,Furnished 1-Bedroom Downtown Boston Apartment,42.352068490162296,-71.06194463372994,100.0,Chinatown,2.837670836835566,1.1851965750620417,1.1068263068916884,0.23701437315325127,4.398620945782
2997,21505991,0.5900000000000001,0.41000000000000003,0.0,0.6636375,Comfortable private room/Fast booking and checkin!,42.35427998887196,-71.12826814484559,100.0,Allston,6.124656388832013,2.33639282768856,2.393529677947864,3.224702257139677,1.8794164353224696
4670,29801970,0.5893703703333334,0.4060000000000001,0.004629629666666667,0.51825,"Private room-D with 2 beds in Boston, MA",42.35081100582018,-71.16393380968441,87.0,Brighton,7.966223594500601,4.1109206803017,4.176075635355287,5.037093430690956,2.4048168340827694
3478,23393316,0.5887,0.41130000000000005,0.0,0.672335,Colorful 1BR in Fenway by Sonder,42.34418773918743,-71.10136502595846,96.0,Fenway,4.924811205697193,0.9110849604517955,0.9863188906078691,1.8756408643089182,3.150779190626886
4687,29878773,0.5880000000000001,0.41200000000000003,0.0,0.53415,"Room 1: Very spacious Modern and clean. Safe,quiet",42.28648964510309,-71.05616310183173,100.0,Dorchester,5.958411462758128,4.379139302922659,4.3986850573994705,4.404422113557733,7.74160179815049
4897,31690021,0.5878333335,0.41216666649999995,0.0,0.42633333349999997,Spacious room + a private bathroom 165/1AA,42.34389465892706,-71.16845863439926,100.0,Brighton,8.269470276064654,4.335898757309256,4.406009460864851,5.285055587935001,2.932899089517465
1812,15188208,0.5874999999999999,0.4125,0.0,0.6557,Bluebird Theater District 2BR Apt + Infinity Pool-,42.352136714890904,-71.0629315072513,100.0,Downtown,2.883900680628432,1.1390964889064406,1.0603770233051661,0.203627130178227,4.351293607862222
4167,27460321,0.586666667,0.41333333299999997,0.0,0.537066667,"Lux 2BR 1BA Apt w/rooftop deck, gym, WiFi",42.33226121546985,-71.1126446693983,100.0,Mission Hill,5.755766590000531,1.7726043497711317,1.8533555676702522,2.7017392611642115,3.580876113871838
3198,22164238,0.5840407407777778,0.40742222222222224,0.008537037,0.5675159258888889,Contemporary 2BR in Mission Hill by Sonder,42.332700426767,-71.10205687040326,93.0,Mission Hill,5.250155812370013,1.3336070040904087,1.4123519598496048,2.214918925070004,3.791719223590998
3278,22525315,0.582333333,0.41766666700000005,0.0,0.609,Southie Cool|1BD 1BR #8,42.33605742214385,-71.04401487728953,80.0,South Boston,2.6948734719101997,2.1637281156223014,2.1148147957450703,1.4601653060123037,5.741490726798985
1925,15718448,0.5822499999999999,0.41775,0.0,0.6529499999999999,Bluebird Kenmore Sq 1-BR Near Harvard Med School,42.34380207377336,-71.0977310375645,70.0,Fenway,4.756042477348468,0.735006454198155,0.8123494963902642,1.7006388416530092,3.2881124519011093
3231,22262801,0.5815,0.4185,0.0,0.65285,Lux 2 Bedroom by Fenway with washer/dryer & WIFI,42.344747987829386,-71.10174688564867,60.0,Fenway,4.932019833781795,0.9244381067497448,0.9983252809315701,1.887052957583325,3.1082291282308847
4339,28332361,0.5804166666666667,0.41958333333333336,0.0,0.6751999999999999,One bedroom on Newbury Street!,42.349675486478475,-71.08202153854097,100.0,Back Bay,3.8668913228453072,0.23731888354211095,0.17663561419618526,0.8431743152297207,3.6017857401197224
4479,28912741,0.58,0.42,0.0,0.7841,Stylish South Boston Stay,42.3356820471456,-71.05480599311764,100.0,South Boston,3.1017428660707607,1.6646178923798591,1.6245952750210308,1.1263857090989493,5.2970345778399475
2348,18736738,0.57918333325,0.42081666675,0.0,0.6351808335,Spacious 1BD APT with Devoted Entrance,42.293567894833295,-71.15847280663905,95.0,West Roxbury,9.102246369627878,5.288308280193433,5.367539553026658,6.146470771321616,6.070980447029828
4728,30157229,0.578,0.42200000000000004,0.0,0.5823,"Quiet, Spacious, Modern 4 Bed. Apt. in Boston.",42.32278018192674,-71.05901372136886,100.0,Dorchester,3.8905654519899056,2.0740444789685264,2.0679593985899443,1.9029623705001517,5.70381387181532
4726,30130150,0.578,0.42200000000000004,0.0,0.8625,Cozy townhome in Chestnut Hill,42.298081295000394,-71.15796789949741,100.0,West Roxbury,8.913615298326768,5.0584813058066285,5.1382858873850195,5.933440838631915,5.75950204781909
2532,19456107,0.5770000000000001,0.423,0.0,0.6249,Plush & Modern 2-BR near Bostons famous Newbury St,42.3302271054514,-71.1113330481264,100.0,Mission Hill,5.752522277575743,1.8012834938977835,1.8816006701151684,2.709642103635959,3.736242214364044
4610,29539152,0.5770000000000001,0.423,0.0,0.6249,Boston Commons Condos Studio 7F,42.35281086741271,-71.0636896534284,100.0,Downtown,2.9061834793640715,1.1198935829716943,1.04033131552269,0.22123200084343067,4.2958267325269714
973,8272350,0.5755,0.4245,0.0,0.6923166665,"""The Sheridan"" JP, Boston",42.32004366635828,-71.10784415823343,100.0,Jamaica Plain,5.93235538645301,2.2019164915439933,2.2761222600005504,2.990332091500496,4.455598613164691
493,4489920,0.575,0.377,0.048,0.52465,Lux 1 Bedroom near Charles St w/gym & WiFi,42.363408005140684,-71.06763390122244,100.0,West End,2.974387059596849,1.4312745664477682,1.3568090116556517,0.9370271217953378,3.8332131293637537
4164,27459746,0.575,0.425,0.0,0.659933333,"Lux 2BR 1BA Apt w/rooftop deck, gym, WiFi",42.330426711002595,-71.11300661138473,100.0,Mission Hill,5.82445761187518,1.8607484219332606,1.9413084750196334,2.7774050353106428,3.6917899287556692
4642,29680644,0.57475,0.42525,0.0,0.53156,Seaport Luxe Condo Studio 3,42.3519103362073,-71.0426146287256,92.0,South Boston Waterfront,1.9362538252807215,2.1437751992668668,2.0693176239568634,1.182542063601749,5.30764142489946
4318,28183289,0.5746666666,0.42533333339999996,0.0,0.5500066666,The Boston Newbury Two Bedroom Suite,42.34929218841097,-71.08535825317327,84.0,Back Bay,4.038255902941519,0.2065930245037204,0.20773035760696212,1.0147677742472334,3.4812374429676676
1059,9130532,0.5726666665,0.4273333335,0.0,0.46245,"Centrally located, cozy studio",42.34753064431261,-71.10353120295443,90.0,Fenway,4.967695464358254,1.0101164866447874,1.076212088402899,1.9512755930843277,2.900827362294576
4703,29967256,0.5708,0.4292,0.0,0.54572,Great room near airport,42.38837380553733,-71.00922370505786,100.0,East Boston,1.5720181793569559,4.789237926511991,4.708746424499445,3.91887558562695,6.662323992418341
3109,21824635,0.57025,0.42975,0.0,0.545175,Private room at Boston Luxury Suites 2/1,42.31276946482525,-71.05538345742984,100.0,Dorchester,4.335088600753412,2.7478810133001197,2.7495549274378708,2.6165819575471425,6.329211620426628
3214,22207016,0.57,0.43,0.0,0.678666667,Stunning 3 Bedroom in The heart of Boston + Views!,42.33063710003932,-71.1123714196695,100.0,Mission Hill,5.788835088307155,1.8259977456444805,1.9065329701226494,2.7419142575812585,3.6901202901933936
3940,26012594,0.568180272,0.43181972799999996,0.0,0.5234285714285714,Relax Inn W/ Patio Grill Near DWTN FreePk•walk2T,42.30953006647877,-71.0624829915904,97.0,Dorchester,4.723424470724716,2.777500178486707,2.79153558964338,2.792221592006575,6.262239036890781
2981,21473358,0.565,0.435,0.0,0.5994,Pet Friendly Apt Near the Redline with Water View!,42.30521717008735,-71.06314334789795,100.0,Dorchester,4.988812326431783,3.041411976650672,3.0592027628591403,3.0879383408206724,6.4769487804571355
3941,26013456,0.5626666666,0.43258333340000005,0.00475,0.42882999999999993,Spacious sunny room close to downtown crossing,42.32216630060442,-71.05560936619078,100.0,Dorchester,3.812758716847978,2.2172453125168126,2.2070000652934874,1.9821731451190308,5.859126709108714
2389,18907659,0.562,0.40249999999999997,0.0355,0.8218,Quaint 2BR Condo Near Charleston Street!,42.36486459270322,-71.06539327521841,100.0,West End,2.856265511882927,1.5800880874169145,1.5048978699198372,1.0315401176707741,3.913950047399819
4057,26685504,0.55795833325,0.44204166675,0.0,0.59812083325,Steps to Jamaica Pond / Emerald Necklace (Boston),42.32242197413903,-71.1153152771365,100.0,Jamaica Plain,6.179119080759194,2.3156161439617833,2.3942315595148824,3.177302378027724,4.176171076144396
4081,26835473,0.55775,0.44225000000000003,0.0,0.6813875,Magnificent 1BR Apartment at Mass General!!,42.3650237364581,-71.06859608168878,90.0,West End,3.020010265019561,1.4972173847575823,1.4251709749159023,1.0540433116327799,3.7533987515648115
1169,10119193,0.55689166675,0.44310833325,0.0,0.528955,Sleek Furnished 2bed/2bath in the heart of Boston,42.364668042853936,-71.06942445347282,100.0,West End,3.062833206071812,1.4543412633095851,1.3829205876919637,1.0370244798732264,3.7198042750837312
4543,29205137,0.553666667,0.44633333299999994,0.0,0.788433333,"Charming, bright, walk anywhere in historic Boston",42.37493359998199,-71.0619398342059,80.0,Charlestown,2.755209254085832,2.259461438064401,2.1883695303329556,1.7363860788129526,3.9596010680619
3999,26361101,0.5535,0.44649999999999995,0.0,0.6595833333333333,One Bedroom in the heart of Back Bay #307,42.34676974720475,-71.07838862670725,93.0,Back Bay,3.7536852245237817,0.28017423910553885,0.21298969453605535,0.6920669782921055,3.870506491646642
4731,30174520,0.549166667,0.45083333299999995,0.0,0.594066667,"Large, private “studio like” bedroom in West Roxy!",42.28215400469528,-71.14885930327873,40.0,West Roxbury,9.167815492278715,5.55202709113252,5.627645343872702,6.331409918376238,6.79497163158252
3459,23321493,0.5476666665000001,0.45233333350000005,0.0,0.4650833335,"Beautiful Views, Great Location",42.363573948402546,-71.06827702270124,100.0,West End,3.0067054457789637,1.421901546404199,1.3482163804727494,0.9526622446544434,3.7983688337136052
3745,24623318,0.5475,0.4525,0.0,0.6249,Boston Furnished 3BR Apt Close to Transportation!,42.36611531571781,-71.06805980750484,100.0,West End,2.992484310761052,1.575896215115478,1.5042065707733197,1.1251584356992241,3.759354521460362
4657,29731891,0.5445833335,0.4554166665,0.0,0.593,(6-3) South End Getaway! Near Boston Medical!,42.335319884379956,-71.07496082028105,80.0,South End,3.9453671218644364,0.8968650557434512,0.9031534076450213,1.1168789746184455,4.515222742243227
4568,29357237,0.5443885714000001,0.4538971428,0.0017142858000000001,0.5970928572,Prime Downtown Boston Apartment,42.35615845521024,-71.06145613181168,100.0,Downtown,2.733295577429003,1.3256699170559576,1.244965248962974,0.4790242271560542,4.303846831010002
4770,30320050,0.54366666675,0.34858333325,0.10775,0.56678333325,Lovely Studio in Lower Allston by Sonder,42.362971207571505,-71.13081807836821,95.0,Allston,6.2073700181054345,2.659239382733975,2.7032644267358044,3.4602604899364926,1.268511278732227
3895,25685344,0.5435666668,0.4564333332,0.0,0.7459666666,43' Motor Yacht in Boston Harbor,42.371906902898594,-71.04986921030847,100.0,Charlestown,2.1065595018338743,2.4692533977797435,2.3905650678695167,1.7169315176509519,4.596780505962908
492,4467841,0.5429999999999999,0.457,0.0,0.552,Lux 2BR Apt Near Waterfront,42.36390010325937,-71.0699701804912,100.0,West End,3.092336591467259,1.3944972481523898,1.3230194752087316,0.9910417765434941,3.708967154238125
4895,31676605,0.5425,0.4575,0.0,0.5887625,Boston eagle hill,42.38130597315849,-71.03220861404263,80.0,East Boston,1.5855712832021716,3.571197230227044,3.4916493208203416,2.7579832549713896,5.463716575040426
3741,24600107,0.54066666675,0.44883333325,0.0105,0.63564166675,Feb Break Special! Entire Home in JP!,42.29861454886417,-71.10933282791369,100.0,Jamaica Plain,6.88938103175414,3.5545523735185856,3.6201682708434904,4.191356115322761,5.8405584936734005
250,1819994,0.5403333335,0.4596666665,0.0,0.481675,"RIVERVIEWS-Walk Everywhere! Central, Safe LOCATION",42.34947355506917,-71.09264659076742,80.0,Fenway,4.394609971756893,0.49448529494804416,0.5429534162565695,1.3873330722201447,3.187038535429222
4615,29539486,0.54025,0.4345,0.02525,0.6013,Boston Commons Condos 1BD 1F,42.35233628015175,-71.06465524159934,100.0,Downtown,2.963281164891581,1.0616812110880096,0.9822792515859002,0.1730349215682848,4.266298560779429
3976,26223565,0.5394999999999999,0.44950000000000007,0.011000000000000001,0.550562963,Nice Bedroom w/ 2 twin beds. Walk to Red Line T,42.28443790199232,-71.07178769998328,91.0,Dorchester,6.444138158926854,4.329051261715582,4.362768117584656,4.530935893597082,7.459296533251857
4350,28358942,0.53925,0.46075,0.0,0.5754375,Room G: Big Old Home in Dorchester,42.28602551255785,-71.08524250743,90.0,Dorchester,6.721287915607206,4.175756930021163,4.2207324135484034,4.523923136062142,7.066526150635392
1052,9041513,0.5365,0.2135,0.0,0.513875,Lux 1 Bedroom by Fenway with washer/dryer & WIFI,42.343221756973186,-71.10007916211529,80.0,Fenway,4.882770560817719,0.8615147233121427,0.9390155378372914,1.8270743719995826,3.243805235170825
3861,25288510,0.536,0.46399999999999997,0.0,0.8859999999999999,Upscale 2BR Apt Minutes from Boston Common!,42.346268619726686,-71.06489813827031,100.0,South End,3.1295780963387196,0.9705031748433857,0.9041652612811936,0.25426614422493676,4.4611531304804535
4068,26778454,0.535875,0.464125,0.0,0.6524749999999999,WINTER PRICES - JP One Bedroom Sleeps 5 !,42.30617293736058,-71.10548747786686,100.0,Jamaica Plain,6.398119924991509,2.9969696748602397,3.0627699647831417,3.64690112897256,5.397754563833624
4789,30497303,0.5355,0.4645,0.0,0.782675,Playful Studio in Lower Allston by Sonder,42.36340374081121,-71.1311030416292,80.0,Allston,6.22112967669491,2.685254019415887,2.728749932250004,3.482196468907084,1.2355268730932292
4709,30018763,0.534875,0.465125,0.0,0.3285375,Private Bedroom in Brighton,42.354404114164645,-71.14784300537289,95.0,Brighton,7.11871035859136,3.3212205900401828,3.3818114905672534,4.224139692874225,1.8459920141801918
4348,28347934,0.5346,0.45930000000000004,0.0062,0.58334,Bedroom 201 for short stay,42.31603518932343,-71.09133383607566,100.0,Roxbury,5.405521655402784,2.138465189196792,2.194069881472373,2.685642847692853,5.063622281956512
4387,28544711,0.534,0.405,0.061,0.9286,Seaport Luxe Condo 1BD 2,42.351824029891894,-71.04392412906323,20.0,South Boston Waterfront,1.997862050213121,2.0767242845516325,2.0021861584469645,1.1152634540999098,5.247651171719419
3592,23790542,0.53275,0.34025,0.127,0.36515,Basic living for short term stay in Boston,42.317490984009524,-71.05661846820988,100.0,Dorchester,4.101539146860725,2.440971750051187,2.4388488873326093,2.284625524764884,6.0487489806400525
2597,19696922,0.53225,0.46775,0.0,0.6386000000000001,"Elegant, Spacious 1BR near Bunker Hill Monument!!",42.32971464981159,-71.11221226964012,100.0,Jamaica Plain,5.8083282777749,1.8585411198688737,1.9388598568247823,2.7663523062210724,3.752339974740524
4857,31073977,0.5315,0.4685,0.0,0.6206166665,Franklin Park Roxbury 305,42.31731535823351,-71.09136471799229,60.0,Roxbury,5.351242043885737,2.051893109669795,2.108018361613443,2.609850610800367,4.985584310480308
2082,17037270,0.5304444443333333,0.4695555556666667,0.0,0.5001074073333333,Double Unit - Downtown/Convention/Ocean/Tour 287BC,42.33284809530896,-71.05224229779395,100.0,South Boston,3.142736980037634,1.873383783870615,1.8376434054144233,1.3613322910715722,5.5182728380531945
4022,26450614,0.5300833333333334,0.4699166666666667,0.0,0.6752666666666668,Spacious 2BR in Lower Allston by Sonder,42.36481339146816,-71.12972902023306,100.0,Allston,6.1491224992959195,2.66671742506787,2.707184956492378,3.4422254910571564,1.1705812212661797
3892,25641064,0.5289444445,0.45994444450000005,0.011111111166666666,0.6109722221666667,Charming Boston Brownstone with Breakfast!,42.33620496544749,-71.07565949338799,90.0,South End,3.943959466007747,0.8260691543982043,0.8326482288337032,1.0787764361870436,4.4472640923021975
4416,28637727,0.5274444443333334,0.42672222233333335,0.04583333333333334,0.4030555556666667,1 Private room close Fenway & Downtown Boston,42.32562391460978,-71.10537196848003,87.0,Jamaica Plain,5.626663838634932,1.8149573934236924,1.8909645455266832,2.6399393289052964,4.149057439041912
4215,27634728,0.5271944445,0.4728055555,0.0,0.5921666666666666,Boston Condominium,42.33876451486299,-71.1511248975638,97.0,Brighton,7.478545649318722,3.4860431379653014,3.5602099690295455,4.448491893231327,2.9354309982741533
1600,14081071,0.526111111,0.473888889,0.0,0.6774055556666667,Private room in a nice cozy apartment!,42.3415893629661,-71.1493389954488,100.0,Brighton,7.3433986706985745,3.3704194730659456,3.4428130396943706,4.328174593582171,2.7259276884578303
4379,28494167,0.5245000000000001,0.47550000000000003,0.0,0.6279666666666667,Sleek Garden Level Studio: 1 Stop from Everything,42.37202018673833,-71.03921546329572,100.0,East Boston,1.5792466073741396,2.884343826737386,2.803918319793196,2.035900816388699,5.1372092952468025
4206,27602176,0.524,0.47600000000000003,0.0,0.62805,855 Sqft. 1BD Luxury Back Bay Apt + Full Amenities,42.350978719158654,-71.07057327142567,100.0,Back Bay,3.2803927671088124,0.746289004685557,0.6664022014846146,0.26706439945535193,4.044716773895463
603,5511911,0.523,0.47700000000000004,0.0,0.6588,"Bright, Spacious Loft in North End",42.36509127285064,-71.05552534087606,100.0,North End,2.350975946489196,1.9355574960193975,1.8558453948601197,1.1662755978213986,4.3982293221336075
2862,21021897,0.52238541675,0.47161458324999994,0.0060625,0.562219791625,Charming 1BR in Brighton by Sonder,42.337603012066985,-71.15413076787014,100.0,Brighton,7.647664130862425,3.650892130951753,3.725525930741628,4.614291046968578,3.0493142444328525
3443,23303687,0.5215555556666667,0.4784444443333334,0.0,0.5729972221666666,Back Bay Beacon One Bedroom Suite,42.354778662744216,-71.0743949564099,88.0,Back Bay,3.3998941939489447,0.7480482074262639,0.671351608799669,0.5632380563560379,3.7461830684190844
4689,29881110,0.5205555553333333,0.47944444466666675,0.0,0.5868777780000001,Room 2: Good spacious modern and clean.Safe &quiet,42.287950537063395,-71.05409748350769,100.0,Dorchester,5.823928022083891,4.3200448805446365,4.337187089367996,4.3173144639941246,7.716498743236862
2258,18228231,0.5204444444999999,0.47812962966666667,0.001425926,0.4984185185,River st Private Master bedroom with own bathroom,42.27272519511232,-71.07711510667939,87.0,Mattapan,7.28373699773262,5.104824031216992,5.143879599622148,5.360906700104748,8.074316299109318
1288,11827696,0.5203333333333333,0.4796666666666667,0.0,0.51075,Skylit top-level loft in Boston,42.33086106027634,-71.10033068369297,87.0,Mission Hill,5.227673208146905,1.3710460823309534,1.4473885359759917,2.2138802491717415,3.945862874560992
4715,30065996,0.5199365080000001,0.480063492,0.0,0.5442936509999999,Resort Chandler Pond 2 Bedroom Full Kitchen,42.347855429883396,-71.16587700957491,80.0,Brighton,8.093424183398511,4.200823698683206,4.26826710576724,5.138302028343683,2.630613285842671
3485,23412729,0.518187037125,0.44870636574999995,0.033111226875,0.47848722224999996,Charming Studio in Fenway by Sonder,42.34439294601664,-71.10273023461228,98.0,Fenway,4.987341745160967,0.9777433012897907,1.0521587205378335,1.9411870260281157,3.0972222014210726
3010,21548228,0.5180285714285715,0.4593260204285715,0.004808673428571428,0.5333423469999999,Sleek 2BR in Downtown Crossing by Sonder,42.35191672426439,-71.06298497416955,85.0,Downtown,2.8914204161933883,1.1314317452011513,1.052940448389972,0.19057827475397812,4.355666855683074
3709,24412927,0.5170666666666667,0.4829333333333334,0.0,0.6204033333333333,Cozy Colonial (entire home) near Lower Mills,42.27570489112424,-71.08791560223433,93.0,Mattapan,7.3885195906958145,4.891924437209032,4.938512670590046,5.248944630285138,7.680026531664672
4900,31887455,0.5165,0.46799999999999997,0.0155,0.570125,Perfect for Boston Explorers - No extra fees!,42.37535114046913,-71.03198308027932,70.0,East Boston,1.328676956597125,3.318175069187475,3.23765616627751,2.4565087891388955,5.485859954043571
2674,20208589,0.5165,0.4835,0.0,0.79515,Lux 1 Bedroom Apt Near Waterfront w/wifi,42.36403919430778,-71.07023528328118,100.0,West End,3.105545148975927,1.3959404131921662,1.3249256278846793,1.003544186151498,3.693113571441826
4686,29867979,0.5162666665,0.48373333350000003,0.0,0.5642866664999999,"Hip Beacon Hill 1BR w/ Balcony, walk to the Common by Blueground",42.35877651119132,-71.06699200928136,100.0,Beacon Hill,2.9753008914367727,1.2087190768507907,1.129851416631881,0.6156989883527451,3.972946445971144
1978,16189885,0.5161250000000001,0.48387499999999994,0.0,0.6417375,Convenient and Clean Studio Apartment,42.346747885982545,-71.0900743099066,100.0,Fenway,4.320329647175759,0.3190909049640179,0.3878466996195325,1.2742721762897165,3.411139343030974
2325,18600221,0.516,0.484,0.0,0.4926,Allston 单独一个房间出租,42.34745229191885,-71.14012359732958,60.0,Allston,6.798248288359067,2.881958148172378,2.9494950881343227,3.821589025433002,2.269850642984271
4109,27126754,0.5136833334285714,0.4863166665714286,0.0,0.6192554762857142,62 Private & elegant room luxurious house - Boston,42.350711918035344,-71.13393759665459,98.0,Allston,6.44743092872211,2.580742733247255,2.6441249460220844,3.501410246129775,2.060262512190954
1371,12592696,0.5134,0.4866,0.0,0.5231600000000001,Clean and comfort bedroom,42.347722118609,-71.13526354817758,100.0,Allston,6.550321840109597,2.633707194625324,2.700872399617263,3.57217654016007,2.2584413601947357
2220,18043990,0.5131309523333334,0.46182142866666664,0.025047619000000004,0.509882143,Cozy Private Room,42.31869447313571,-71.09679259365048,100.0,Roxbury,5.514932266900834,2.0314632986141166,2.0952325358706383,2.684015940231719,4.770699239279897
4337,28331694,0.5125,0.43925,0.04825,0.44445,Back Bay Condos 1BD/1BA 5,42.34597100687532,-71.08376518643024,50.0,Back Bay,4.031248806851277,0.03786629742063276,0.10306028151654274,0.9713311728407287,3.688935760976658
3380,23062683,0.512,0.488,0.0,0.81,Small one bedroom apartment in downtown boston,42.344213087430475,-71.05407336651464,100.0,South Boston Waterfront,2.7134397685972087,1.5328796581994006,1.470381261965463,0.7076745050448497,5.009829094496377
4867,31128042,0.5116666670000001,0.488333333,0.0,0.48813333299999995,Luxurious Cozy 6 with Private Bathroom,42.306791697608936,-71.06796924309897,80.0,Dorchester,5.040862764327872,2.8599365905773313,2.8830708480322054,2.979353605651038,6.243218812483834
2215,17994861,0.5115,0.4885,0.0,0.7362,South End 2 Bed with Parking x 2,42.34043335454293,-71.07905716545744,100.0,South End,3.9574942318877744,0.48629983258129433,0.4958576477983112,0.9521664171052096,4.121644086770279
4827,30692332,0.5111249999999999,0.48448214275,0.00439285725,0.5668785715,Cozy and charming 2-bedroom hobbit hole.,42.35464746001409,-71.07662764744333,95.0,Back Bay,3.5134236030673924,0.6721073153432124,0.5993664494028162,0.6540353544322064,3.6501465719180737
3957,26102579,0.51,0.49,0.0,0.632,Lovely Executive Studio in East Boston,42.3650959069008,-71.05184190086642,100.0,North End,2.1624546718101274,2.0807734985729707,2.000411917293416,1.2609812366651705,4.581426528225699
4027,26450815,0.5096666665,0.4903333335,0.0,0.7987166665000001,Sleek 1BR in Lower Allston by Sonder,42.36339793729599,-71.13162186837023,100.0,Allston,6.247688624135361,2.709034227969694,2.752818420468069,3.5076914434157036,1.2275116898649963
3255,22359710,0.5095962963333334,0.48771481477777784,0.0026888888888888887,0.5315203703333333,Smart 1BR in Financial District by Sonder,42.3572100236438,-71.05401173999583,85.0,Downtown,2.3459778495338757,1.6965937543498888,1.6163842210748962,0.7761923387751932,4.631896052843805
2901,21176767,0.5095000000000001,0.487625,0.0028750000000000004,0.5784083333333334,Logan Intl Airport - Boston III,42.38903147571557,-71.00176943508964,67.0,East Boston,1.666202163374127,5.124571857808637,5.0438826892144215,4.236286887379957,7.04619258558586
4602,29535711,0.5093333329999999,0.49066666700000006,0.0,0.647066667,Downtown Crossing Studio Apartment in Theatre Dist,42.354464019260064,-71.06120211060261,100.0,Downtown,2.7510611928432787,1.2827431702890917,1.20262727306719,0.38477778192088496,4.362422620417317
2261,18238531,0.50866666675,0.487190476,0.00414285725,0.45077857149999995,Convenient & affordable bed in the heart of Boston,42.35033945458068,-71.13379134961949,90.0,Allston,6.444210772648318,2.5705435784090973,2.634400176243198,3.4936263366834797,2.086709213141849
842,7454907,0.50825,0.49175,0.0,0.7398583335,North End Apartment,42.36515136322868,-71.05571069569143,100.0,North End,2.3604032007190936,1.9312184773447938,1.8515722134737156,1.1658676552617124,4.388024799142461
799,7052171,0.508,0.49200000000000005,0.0,0.4753,Living room in a 4BR/2BA house,42.34763753472381,-71.13235921935194,100.0,Allston,6.40549657374541,2.484896264859491,2.552104703735912,3.423883859171105,2.281529761586309
3216,22208498,0.5073333335,0.4926666665,0.0,0.6468333335,Homey 3BR in Boston near Famous Monuments!,42.33042432072357,-71.11286108604321,60.0,Mission Hill,5.817754636083313,1.854873227703858,1.9354189582349652,2.770968517874573,3.6946325050900306
956,8164953,0.50654,0.49345999999999995,0.0,0.59114,Lux 2BR Boston Fenway Apt. - Landmark Center!,42.344542940595176,-71.09930837828419,96.0,Fenway,4.817013286236479,0.8031246536323927,0.8782220685903412,1.7675336377468838,3.1971952127298855
4411,28614084,0.506,0.494,0.0,0.6249,"Quiet ★ BC, BU, Harvard, Longwood ★ FREE Parking",42.345660123889296,-71.15600668143422,100.0,Brighton,7.620373834534104,3.694979223702367,3.7640800253331004,4.6403806795920985,2.5467427740676833
4390,28545748,0.506,0.494,0.0,0.8481,Boston Commons Condos Studio 7,42.35138957581078,-71.06477908565441,100.0,Downtown,2.9901240381006913,1.032728628080037,0.9543336186163894,0.10895316401641462,4.2906981204976296
4148,27367206,0.506,0.494,0.0,0.6657,2 Bedroom South Boston Apartment,42.337933725702456,-71.04851061529948,80.0,South Boston,2.7595149255474496,1.9040195945137035,1.853704848492738,1.2025741126325973,5.4776811626257444
3642,24094681,0.506,0.494,0.0,0.6249,LARGE studio in heart of Back Bay Marathon closeby,42.349979477046034,-71.07985725577777,100.0,Back Bay,3.7547127315233104,0.3145438064653402,0.23851105440768375,0.7322078305805573,3.680025692262169
4274,27990441,0.5053522725,0.4946477275,0.0,0.5893261365,#B104 Boston Private room ( 2 Twin beds)免费咖啡,42.29579851001333,-71.06234566864119,100.0,Dorchester,5.523440869425716,3.669807161394886,3.6914346568297542,3.739171110917414,7.0310040774874265
4457,28813377,0.5053214285714286,0.4846071428571429,0.009999999999999998,0.5033535714285715,Spacious apartment in the heart of Jamaica Plain.,42.32429507635917,-71.10510815207844,97.0,Jamaica Plain,5.660575334606319,1.8808054708476774,1.9558130941862544,2.688956847221621,4.238207876959136
2700,20350976,0.5049893939090909,0.49333787881818175,0.0016727272727272728,0.570515909090909,Stunning&Furnished 2 Bedroom apt in Boston!,42.3316731714408,-71.11234790355236,93.0,Mission Hill,5.7582513122342665,1.7829971746242084,1.8636850536593081,2.706840688500838,3.6242000304015836
3271,22433219,0.50375,0.47200000000000003,0.0245,0.4838,Fenway  Furnished 3BR Apt Close to Faneuil Hall,42.33052619826815,-71.11287587140514,100.0,Mission Hill,5.815508026072356,1.851278107137362,1.9318428467710966,2.768221566590475,3.687803260211089
3327,22810966,0.5035740741111111,0.4938333333333333,0.0025925925555555555,0.5716777777777778,4mi to Downtown•BCEC•FreePk• steps to T,42.310995362566274,-71.06176939973227,96.0,Dorchester,4.61967696081415,2.6999370721719367,2.711841882952131,2.693635620530709,6.206819030512227
4210,27625553,0.5031111109999999,0.49688888900000006,0.0,0.7451444443333334,IMPRESSIVE 3Beds/1Bath+1PrvtParking byTheTstation!,42.34639556153692,-71.13662149714007,73.0,Brighton,6.636354419848124,2.701959804627743,2.7706131697971124,3.6466406646190967,2.3451031917311247
1152,10034113,0.501,0.49899999999999994,0.0,0.6246166666666667,Luxury Furnished 2-Bedroom Boston Apartment + Gym,42.349733816781615,-71.0605232110554,97.0,Chinatown,2.827533593811092,1.2147962248501363,1.1402269807004384,0.25798970445287356,4.5367404529023885
3645,24121557,0.501,0.48666666666666664,0.012333333333333335,0.5303722223333334,3bed New Remodeled South Boston! Perfect location!,42.33558098055956,-71.05413618211374,93.0,South Boston,3.080927743074933,1.698419835050274,1.657983987035765,1.1495380767500563,5.329004165724349
3723,24517534,0.5005,0.4995,0.0,0.628375,"Lux 2BR Apt w/pool, gym & views of Olmsted Park",42.32848288354968,-71.11120546305533,80.0,Jamaica Plain,5.798845460143566,1.873907174123875,1.9536789415574836,2.7664950758463585,3.8503494460112333
1915,15665935,0.50025,0.49975,0.0,0.6473214285,"Boston private room - Spacious, tidy, close to T",42.23576035181142,-71.13240141117926,100.0,Hyde Park,10.950009328248761,8.039196802200381,8.101634124991763,8.59181827027139,9.983873897926527
3199,22164451,0.5,0.5,0.0,0.37895,Amazing Condo Near Fenway!,42.34519606705062,-71.07945618601764,80.0,Back Bay,3.843502311399018,0.24271623224980393,0.20648137745562717,0.7828240778669728,3.8935962205171166
1093,9430774,0.5,0.5,0.0,0.7275,Modern Industrial Styled Loft,42.34346177505992,-71.0641953929085,100.0,South End,3.1853950109512086,1.0281992587717048,0.9719496323305628,0.45116988351689,4.596193215148676
1648,14421910,0.5,0.5,0.0,0.29295,2-BR Condo 0.4 Miles to Boston's North End!,42.365740636714285,-71.05984695855581,100.0,Downtown,2.5719231453771223,1.8084930707136788,1.7305278305691847,1.1304061163968098,4.1727397678650195
4180,27492026,0.49967473538888885,0.49520820111111113,0.0051170634999999996,0.5871857010555556,"Lg. Sunny Bedroom, 7 minute walk to Redline Train.",42.312165108446315,-71.04750814851809,99.0,Dorchester,4.167822237873381,3.014241349978966,3.0072279482414315,2.7649723347042947,6.638057753883565
2403,18945971,0.49949999999999994,0.5005,0.0,0.6119000000000001,Delightful Downtown Boston Condo!,42.34648553505689,-71.07833365543809,100.0,Back Bay,3.7578948213189842,0.2824493184150496,0.21899420916660325,0.695833208939064,3.884530951507364
1521,13624929,0.49850000000000005,0.4631,0.038400000000000004,0.43266499999999997,"Private Room in 1st floor apartment: Brighton, MA",42.34424342355413,-71.15545336037981,96.0,Brighton,7.610929896221074,3.669571441018304,3.739758570187125,4.619424124966788,2.629606010294493
4614,29539481,0.4985,0.5015,0.0,0.7602,Boston Commons Condos 1BD 3F,42.351818734585,-71.06452259349162,100.0,Downtown,2.9680892546932887,1.0550566581307104,0.9762245972559526,0.14133108289896976,4.288639084595975
2306,18517493,0.4974714286428571,0.46821904757142857,0.010499999999999999,0.5170279762142858,Delightful 1BR in Seaport by Sonder,42.34027808246478,-71.04863547179521,100.0,South Boston,2.6548974350471344,1.8537942907192806,1.798432710433608,1.0924662295752572,5.387418752131646
1175,10186477,0.496486111,0.503513889,0.0,0.6249763890000001,Cozy Private Room in Fenway/Kenmore,42.346264426362055,-71.10295984636005,100.0,Fenway,4.962222762553268,0.9785960186803295,1.048391651302647,1.931610232559899,2.9874973782686967
4168,27461511,0.496,0.504,0.0,0.73685,"Lux 2BR 2BA Apt w/rooftop deck, gym, WiFi",42.332017228155344,-71.11230688189617,100.0,Mission Hill,5.7466999274221005,1.7677238318758248,1.8484446389216647,2.6940010220940516,3.603000390986076
4608,29537290,0.4955,0.5045,0.0,0.7859,Downtown Crossing Theatre District Studio,42.35609123264662,-71.06142366303429,60.0,Downtown,2.732793462588967,1.3247875541276652,1.2440958497743029,0.4755950014660332,4.3071806534804775
2430,19071875,0.4947083333333333,0.47440277783333334,0.0100555555,0.5661416666666667,Big newly renovated 3 bedroom condo in East Boston,42.3802513675496,-71.03972979453067,100.0,East Boston,1.8440464684383824,3.2437883256259736,3.165302282861142,2.47596497785591,5.078462695884811
4157,27428142,0.494666667,0.46266666700000003,0.042333333,0.5517333329999999,Feb Break Special! JP Home for families!,42.29880081138593,-71.11004401995591,100.0,Jamaica Plain,6.907833285420955,3.5561793882652166,3.622298141521706,4.200147865325132,5.8187676682775225
1351,12368012,0.49458333320000003,0.49628333339999997,0.0091333334,0.6226849999999999,(Website hidden by Airbnb),42.308717208857495,-71.11051775662285,92.0,Jamaica Plain,6.490087058541332,2.9448284747551643,3.015076454048513,3.6592556394128946,5.15286946299735
4343,28340540,0.4941266666,0.5058733334000001,0.0,0.59583,Abigayle's Bed and Breakfast M263K3,42.3504139501917,-71.0952818683473,96.0,Fenway,4.509686422849431,0.6441773192314015,0.6913967917961737,1.522282898489982,3.0435873006236536
2647,19996755,0.49387499999999995,0.5025000000000001,0.003625,0.52095625,Fantastic Apartment w Patio & Parking in South End,42.34446243031372,-71.06876160470809,100.0,South End,3.3617954473262923,0.7854460851444159,0.7282418066762363,0.41089514053179865,4.363875464360492
3617,23912131,0.49363333340000004,0.5063666666,0.0,0.6782266665999999,Cozy two bedroom right across Mass General Hospt.,42.36371690456827,-71.06846050248079,96.0,West End,3.0156421403573423,1.4248669285552984,1.3515015823142604,0.9638286628624101,3.7864219336133367
4227,27661692,0.49316666649999996,0.5068333335,0.0,0.6469,Cozy room in artistic house,42.35540373646713,-71.15910193106052,100.0,Brighton,7.685216413323371,3.901222749740239,3.962105427219559,4.80409609730752,2.0052577196220382
2772,20704205,0.493,0.507,0.0,0.7783,West Roxbury private room,42.26524095801624,-71.15023887653301,100.0,West Roxbury,9.994268762432357,6.56034735238086,6.632823562150719,7.278929328911645,7.964369501700799
2319,18584402,0.49299587880000006,0.49189866664,0.01506545456,0.5119600788,Charming 1BR in Seaport by Sonder,42.33965156516818,-71.04877076110341,96.0,South Boston,2.688732141192494,1.8576219353856784,1.8036773084716493,1.113984855221366,5.403835072950388
2919,21239663,0.4923125,0.49724999999999997,0.0104375,0.43947499999999995,Unique 1BR in Downtown Crossing by Sonder,42.35124075953328,-71.06335379552617,70.0,Downtown,2.9247647178434284,1.0988879044135105,1.021133251810409,0.14499099887726807,4.360121978999682
4528,29124829,0.4913194444999999,0.5086805554999999,0.0,0.6227902778333333,Brand New Room Close to Downtown & Convention,42.32635747398189,-71.06044777447912,100.0,Dorchester,3.75693232831063,1.8363294967098922,1.826351593744105,1.6472305259370659,5.480547072735475
1625,14253538,0.49125,0.50875,0.0,0.4639,Cozy 1-Bedroom Roof Deck Apartment in Beacon Hill,42.36039584556532,-71.0700655592388,100.0,Beacon Hill,3.115851957029192,1.1898742943895315,1.1149683790819929,0.7590248606317712,3.7854530008349836
4864,31127195,0.4911666666666667,0.5088333333333334,0.0,0.5692833333333333,Boston Home Away,42.33242200949435,-71.09884656504856,93.0,Mission Hill,5.111047185867431,1.2393672404066698,1.3158660596216627,2.08913213836802,3.892555859142623
4341,28337171,0.4902463636,0.46784454540000003,0.001909091,0.6089146364,Copley Condos 1BD 2,42.346763827272746,-71.07863034112134,100.0,Back Bay,3.7654375412206678,0.2677972094816311,0.20076311741378466,0.703953031413823,3.860846137209661
3480,23397346,0.48987500000000006,0.49750000000000005,0.01259375,0.6216416665,Sophisticated 1BR in Fenway by Sonder,42.34397618528776,-71.10139687610506,100.0,Fenway,4.930774375682738,0.9153755647788823,0.9910339303877836,1.8803696511805112,3.1613615962357917
3196,22163249,0.4898186813076923,0.5077417582307692,0.0024285714615384616,0.5961345054615385,Modern 2BR in Mission Hill by Sonder,42.33251985776358,-71.10052914103527,91.0,Mission Hill,5.185225175382512,1.2894517701147639,1.367232699233455,2.156236712716004,3.841996449720904
4338,28332052,0.4879652778333334,0.49935879633333324,0.003388888833333334,0.5650460648333333,Back Bay Condos 1BD/1BA 7,42.34479499804315,-71.0852600291208,87.0,Back Bay,4.130948730278456,0.1390054894359643,0.21441891833714824,1.0690682622369185,3.684203090928767
4711,30036357,0.48778484845454545,0.5111969697272727,0.0010181818181818183,0.5441321211818181,"A Boutique Hotel Room in Copley, Charlesmark Hotel",42.35114624310861,-71.07794571615044,98.0,Back Bay,3.6381535133916727,0.4399066910220613,0.3621444367746879,0.6399450575146775,3.7166097343545794
4330,28285481,0.48761111113333333,0.5071444444666666,0.005266666666666667,0.5388530555333333,Boston Room 1,42.30172594615272,-71.08281408568244,97.0,Dorchester,5.787445213070716,3.0919387864434387,3.1347969340013684,3.4418709217721664,6.1401198202329645
3703,24396040,0.48750000000000004,0.5125,0.0,0.4398166665,Modern convenience in central Boston location,42.32716869754547,-71.09392120402401,100.0,Roxbury,5.067108397054376,1.431515168355532,1.497229551812766,2.1390952734757747,4.333719965786221
3365,23021906,0.48736111099999996,0.512638889,0.0,0.5787277780000001,284 Marlborough unit 5,42.35225441254666,-71.08449543897629,100.0,Back Bay,3.9430576187347794,0.39745260274277466,0.3670387764156746,0.9829407136749976,3.3954164394639754
3748,24626252,0.48700000000000004,0.513,0.0,0.9356,Magnificent Boston 3BR Apt - Central Location!,42.3641867513762,-71.06921462849094,100.0,West End,3.0529879764754058,1.431417322609706,1.3593107994333633,1.002373771239183,3.7398548855143945
4501,29009284,0.4866875,0.5133125000000001,0.0,0.5430625,Prime Pad with Private Room in Boston,42.337288990270345,-71.04459176393604,100.0,South Boston,2.6509982521085664,2.1086741274156258,2.0576460476873986,1.3828694136771222,5.671488332273892
9,9855,0.48666666666666664,0.5133333333333333,0.0,0.692861111,[1330-1D] Lux 1BR  w/ Den - Fenway,42.34337078514997,-71.09870840549256,90.0,Fenway,4.81295622620714,0.7911486878756687,0.8689050230735551,1.756587238714861,3.2793253944455802
4328,28276984,0.486333333,0.5136666670000001,0.0,0.28373333300000003,Boston House,42.342155514115106,-71.07165332076517,100.0,South End,3.5651999496663414,0.6932421609438243,0.6541953475664563,0.6202198609905033,4.337684226214387
4796,30503561,0.486,0.514,0.0,0.362075,Split-Level 2BR in Downtown Crossing by Sonder,42.35180994200771,-71.06285118890774,100.0,Downtown,2.8873717512165764,1.1355089210290488,1.0571800281913468,0.1902445777880494,4.365103915227617
954,8163273,0.485861111,0.5141388889999999,0.0,0.5536861110000001,Lovely 2BR apt near Fenway Park,42.34475584567394,-71.10062117823438,80.0,Fenway,4.876767648896539,0.8672617188839787,0.9414365127269344,1.8303839331862644,3.143458145972427
1137,9878725,0.4845,0.5155,0.0,0.5817,Small Cozy Attic Bedroom,42.36030977059385,-71.13411347506904,100.0,Allston,6.3839825974425235,2.7437312874626345,2.7933958137369252,3.582235035259667,1.4038144770456618
4835,30748782,0.483333333,0.5166666670000001,0.0,0.701133333,Nice and Cozy Bedroom,42.34321486506549,-71.09542840029721,100.0,Fenway,4.6576712184913305,0.6351175016528989,0.7144790112981545,1.5979756187858905,3.3954744983251834
4452,28784662,0.483,0.517,0.0,0.57625,Spacious 1 BR Suites in the Heart of Back Bay,42.35026761700029,-71.08912918928155,100.0,Back Bay,4.206518881271419,0.374311478060068,0.4013546120255332,1.2071368925886816,3.288299246438205
4474,28880562,0.483,0.517,0.0,0.4215,"Stately Seaport 1BR, w/ Pool, Gym + Roof Deck by Blueground",42.35231077977141,-71.0434815164119,100.0,South Boston Waterfront,1.96202915485891,2.105149954651352,2.030178443538634,1.1421332156634902,5.256190624308853
3506,23500537,0.4825,0.5175,0.0,0.62315,"Devonshire Place, Lux 1 Bed Dwtwn Financial Area",42.35715701650085,-71.05857465756839,100.0,Downtown,2.573793026388305,1.4879172673567573,1.4072487258107074,0.6142117563912569,4.414706388677834
4477,28890444,0.4820275132222222,0.5157820105555556,0.002190476222222222,0.6219515872222223,Cozy Boston studio in Allston/Brookline,42.34630526102497,-71.1382685691813,93.0,Brighton,6.720232207311795,2.7863185103153807,2.855051565019216,3.731200556874356,2.348527202245388
4884,31512667,0.48100000000000004,0.519,0.0,0.8126,"See the train on back porch, place is beautiful.",42.24920275802736,-71.1233096383244,20.0,Hyde Park,9.923791552275372,7.014420408153229,7.075728597306771,7.55528706395688,9.085882027985473
4776,30395670,0.4802,0.5198,0.0,0.57162,Studio near Fenway and Colleges,42.344815513056176,-71.0896949890687,100.0,Fenway,4.344080141202673,0.32146515330030506,0.40105178716668305,1.285156695059702,3.517054991487846
4751,30266656,0.4794517857000001,0.5092482143,0.0113,0.5283345833,Modern Boston Theater District Apartment,42.350252389233454,-71.06563858559298,92.0,Downtown,3.058042563132172,0.9674196261088349,0.8904601378017218,0.023328529266644592,4.289272074294297
4534,29156654,0.4785,0.5215,0.0,0.75535,Massive Private Room close to Green Line & More!,42.352848325070426,-71.14603234365795,100.0,Brighton,7.039282185635648,3.2134896417901455,3.2755650122075295,4.125092172974304,1.930778113597426
3084,21770994,0.47833333299999997,0.5216666670000001,0.0,0.623166667,My Home,42.30957036231747,-71.08850595312714,100.0,Roxbury,5.593065126196113,2.561175698980366,2.6113976361158446,3.022866959814775,5.525164894492502
3656,24168312,0.47818000000000005,0.51186,0.00996,0.446184,Back Bay Apt walk to restaurants,42.34988147856105,-71.08703770343783,84.0,Back Bay,4.109951149542077,0.28389539516074086,0.2987893986127455,1.0998252637595256,3.3885006340258292
3440,23293297,0.4781666665,0.5218333335,0.0,0.432125,Expansive 1BR in Fenway by Sonder,42.34266525490338,-71.10095577905768,100.0,Fenway,4.937564182963994,0.9152962497248903,0.9933564497920223,1.8804014178925648,3.247134083960767
3103,21812988,0.47718181818181815,0.5228181818181818,0.0,0.5667234848181818,Vibrant 1BR in Mission Hill by Sonder,42.33198443307725,-71.09920451838428,95.0,Mission Hill,5.141012168211297,1.2744395242771807,1.350845448309545,2.12159946420029,3.908671996920916
4583,29463925,0.47633333299999997,0.523666667,0.0,0.583766667,Boston Townhouse Private Room - Double,42.33949595818152,-71.07489757440177,100.0,South End,3.797599762047802,0.6670108894722687,0.6563813787391077,0.8639689363518422,4.324350623523155
4393,28546922,0.476125,0.523875,0.0,0.7774187499999999,Seaport Luxe Condo 2BD 1,42.3527723650206,-71.04310011703153,90.0,South Boston Waterfront,1.9299639380493996,2.1305453826412317,2.0551817858718078,1.1664070630598262,5.262734241654678
3007,21546827,0.4756444444166667,0.45747222225,0.025244444416666668,0.38812777775000007,Spacious 3BR in Brighton by Sonder,42.3411135226156,-71.15690845647316,92.0,Brighton,7.728559117953309,3.7593527695674696,3.8316645822550144,4.7167253207908235,2.8581216905737894
4008,26369295,0.47484550266666664,0.5133247354444446,0.008126058222222222,0.5013501508000001,Cozy bedroom in Dorchester (#4),42.307263461398776,-71.06657707540707,94.0,Dorchester,4.972509218553612,2.85005388887163,2.871083444112638,2.94469144899819,6.258720274129531
4745,30251477,0.4747,0.5253,0.0,0.6110433334000002,Heart of Theater District Boston Apartment,42.34967122648898,-71.06507303193689,96.0,Downtown,3.0451640655358783,0.9857305928044598,0.9100572110832408,0.030104254133557808,4.334083851374183
3211,22203536,0.474,0.526,0.0,0.4019,Beautiful 2 Bedroom in Boston with Gym + Nice View,42.33188525705209,-71.11234092272387,100.0,Mission Hill,5.751978901908005,1.774330628123209,1.8550406411297984,2.6997400492252064,3.6107742075951874
4307,28127312,0.47224999999999995,0.481625,0.046125000000000006,0.46277,Boston Seaport Water View Apartment,42.34828063967083,-71.03888875990758,87.0,South Boston Waterfront,1.917578426464769,2.3052405233990596,2.2351906294800488,1.370009624774049,5.579927418927208
340,2816133,0.4714666666666667,0.47113333333333335,0.024066666666666667,0.37993999999999994,Lux Boston Theater Dist 1 Bedroom w/WiFi,42.35257155552278,-71.06362172275671,93.0,Downtown,2.9079410064551667,1.1168155091825946,1.0374773320143382,0.20809010502967543,4.306275152275397
4841,30904238,0.47133333299999997,0.528666667,0.0,0.4859,New Listing! Renovated 4 Bed Condo in Back Bay!,42.34587616670614,-71.07395839126585,100.0,South End,3.5649041137213575,0.508382950872543,0.4468967246274354,0.5128120668426408,4.090028986722985
1400,12899321,0.4711,0.5142,0.0146,0.5356033335,"Kingston Street, 1bd Service Dwtwn Financial Area",42.351566744068045,-71.0593080613562,100.0,Chinatown,2.7227228896581686,1.3039809460496814,1.2269154342971818,0.33947166883551266,4.535042952731151
2944,21371844,0.471,0.5289999999999999,0.0,0.6177874999999999,Master suite near Downtown Boston,42.320996246106134,-71.09275774644827,100.0,Roxbury,5.254354084644674,1.819530714198454,1.8793367755854837,2.4343229051883464,4.729458015389768
4223,27654558,0.4701050169285714,0.5083881802857142,0.021506802714285712,0.5451669047857143,"Charming, spacious, & private room in TOP location",42.34897692513544,-71.08874539464743,86.0,Back Bay,4.210942769649456,0.30277679046505185,0.3430476612865242,1.189044132744014,3.36024807735606
4812,30506411,0.4695,0.5305,0.0,0.703875,Central 2BR in Downtown Crossing by Sonder,42.35150390240508,-71.06284836322567,100.0,Downtown,2.894273773023722,1.1290289922126775,1.0510772820744207,0.17654567212546055,4.37480674773849
2623,19858006,0.46792351647999986,0.5260682784,0.006008205159999999,0.5449435740799999,Modern 2BR in Brighton by Sonder,42.338468466094376,-71.15345312313327,92.0,Brighton,7.5991121290781125,3.606989983949717,3.6811681821890563,4.569451012998028,2.982772455695566
4784,30469874,0.46775,0.53225,0.0,0.66065,Private Garden Apartment sleeps up to four.,42.31206515152685,-71.12307888929514,90.0,Jamaica Plain,6.88624381532108,3.112986391428203,3.190155764943719,3.9376830613824443,4.781301734720537
1006,8518091,0.467298076923077,0.5209070513076923,0.011794871769230768,0.5885602563846154,Dot Spot,42.29620501045,-71.04894321761127,94.0,Dorchester,5.196312188381983,3.9058169800628058,3.9138844318723294,3.803888699941118,7.4138456959405685
4295,28076840,0.4672653061428571,0.5327346938571429,0.0,0.6117765305714286,Beautiful modern Boston apartment,42.337339344774044,-71.04116308803466,100.0,South Boston,2.5330008359195615,2.2756862840421617,2.2230367938026516,1.521184581408414,5.819955216887618
523,4593985,0.4658,0.5342,0.0,0.61722,Parking Renovated Close to Downtown,42.31735835442764,-71.07972056888072,80.0,Roxbury,4.8968260666149614,2.023592456163016,2.0607741577692567,2.3616246879243903,5.3001684698242775
3693,24352165,0.46569365071428565,0.5132436508571429,0.021034126999999996,0.5248285714285715,Ocean Room,42.28599607007842,-71.06102239807805,94.0,Dorchester,6.093023967949737,4.337766232107102,4.361732099849474,4.418237855582499,7.637166611717067
4077,26813765,0.4653849205,0.47159127,0.0630238095,0.5089285714999999,Back Bay Beacon Three Bedroom Bi-Level Suite,42.355188020771706,-71.0730045934283,93.0,Back Bay,3.3242645285764385,0.8164452954186925,0.7386239872299915,0.5269062026768282,3.7961097003547586
4535,29158192,0.46510158733333334,0.5331333333333333,0.0017428571333333335,0.5419943650666668,Recently updated,42.352102335547706,-71.14171980025925,96.0,Allston,6.827184400800935,2.98783458181563,3.050299416016633,3.9022801088969543,1.9532050764136821
3160,21952800,0.46475,0.47275,0.0,0.45545,Classic Wellington Hill Guest House 1,42.284136886203754,-71.09439573212897,100.0,Mattapan,7.104751131406152,4.339261362259654,4.391137884669986,4.774741545884997,7.020689442027129
4280,28014596,0.46467708325,0.5243229167500001,0.011000000000000001,0.5583,#B102 Boston Private room (Full size ) Boston,42.296854167584435,-71.06177005863702,80.0,Dorchester,5.44546726758204,3.6094964588622953,3.6300608973241077,3.667820566419082,6.987276730602623
474,4315439,0.4645,0.5176666664999999,0.018000000000000002,0.5540916665,Private Room Logan Airport 1/2 bathroom,42.38921070848657,-71.00268251833265,90.0,East Boston,1.6676720901646098,5.0934711367703,5.012810705716995,4.208334758772415,7.000704377143115
274,1961034,0.46399999999999997,0.536,0.0,0.7351,1BR in Brighton,42.340010587465,-71.15542632945095,100.0,Brighton,7.671767176237813,3.692359681577823,3.765460409683042,4.652102482715207,2.907434763428987
4629,29607084,0.46302272749999995,0.465340909,0.071681818,0.3584022725,Central Boston  5 Bed 2 Bath North End-Sleeps 10,42.38423098561607,-71.07098196289475,70.0,Charlestown,3.394410243800769,2.685203949668339,2.627110830002001,2.384447538505992,3.4894897699105174
3156,21943599,0.46279166675,0.47883333325,0.01670833325,0.54675416675,2 APTS 6 BD 3 BA - FENWAY/HYNES CONVENTION CENTER,42.349745427868704,-71.09584572842654,90.0,Fenway,4.5486684422491175,0.6533732618590865,0.7056158321607021,1.550824528225743,3.054160397641237
4455,28801319,0.46275,0.53453125,0.00271875,0.54686875,"Rm #2, Safe Area,  8 min walk to JFK-T, City View",42.315518438045956,-71.0540434559842,100.0,Dorchester,4.138598157812434,2.6282445579245195,2.6250891161954875,2.446558323101743,6.238315144855916
3794,24862997,0.4625833333333333,0.5205000000000001,0.016916666666666667,0.4817027778333334,Brigham Circle Boston Original Super microApt,42.33220062363451,-71.10655574053028,91.0,Mission Hill,5.473200185462322,1.5258194221448633,1.6058527956378086,2.4296662324635983,3.7131886873550393
258,1868004,0.46238055549999996,0.5376194445000001,0.0,0.555235,Lux 1 Bedroom near Charles St w/gym & WiFi,42.36325104052097,-71.06735805058821,97.0,West End,2.960862827950969,1.4307512951383052,1.3558924575713525,0.9247486317666757,3.849969751804439
4859,31087814,0.46214999999999995,0.5378499999999999,0.0,0.54141,Comfortable room near the city :)),42.37927197028697,-71.03802735998296,90.0,East Boston,1.7341468980296573,3.257791160615328,3.178700733694507,2.4677797969133843,5.166132783451592
4793,30502725,0.4615,0.5385,0.0,0.563675,Contemporary 2BR in Financial District by Sonder,42.35901261184939,-71.05493531863522,100.0,Downtown,2.364747322545977,1.713269421690248,1.6325583539856086,0.8303615392203477,4.545712024723599
4624,29548498,0.4615,0.5385,0.0,0.6829999999999999,5 Private Bedroom Fenway Park & Downtown Boston,42.324888581238454,-71.10560158031977,100.0,Jamaica Plain,5.661954134777964,1.8625499851485148,1.9382382671008924,2.6814574147571704,4.1904953702914876
3580,23743618,0.4610833333333333,0.5284166666666666,0.0105,0.5013555555,Bi-Level 2BR in South End by Sonder,42.34501012459301,-71.06615537584169,87.0,South End,3.2252628222978683,0.9119328628595567,0.8506217214098528,0.34027573735102584,4.45356514956122
4131,27255853,0.461,0.539,0.0,0.7099333329999999,"Cozy, quiet space in Hyde Park MA",42.27047838318163,-71.106344723232,100.0,Hyde Park,8.225779815787433,5.3732685617947995,5.430475938069254,5.867856955842304,7.763888976629827
3981,26246423,0.4608190477142857,0.5349952379999999,0.004185714285714286,0.6351009524285715,"Spacious Apt W/ Private Decks in Boston, JP",42.31194839626541,-71.10121408112141,97.0,Jamaica Plain,5.976738508076949,2.546260779005204,2.61109238505324,3.1943465518657637,5.100185010572723
815,7185881,0.460715,0.519285,0.0,0.6134193333,Room Close to public transportation,42.23688869235556,-71.13291248005028,98.0,Hyde Park,10.90148711308788,7.9733908227395425,8.036142028517096,8.531003357512816,9.905184770772538
3472,23369913,0.46025740753333333,0.5336964385999999,0.0009179487333333334,0.5057584473333334,"A healthy warm, organic wholesome breakfast n bed!",42.34310893972985,-71.08700517639231,95.0,Fenway,4.25593728768645,0.2853070548051973,0.36099043708931844,1.1946059552701738,3.6979307249305484
4268,27958363,0.4601728991764706,0.5046793417352942,0.005734593823529413,0.49180061620588233,Boston Common Super Spacious One Bed Apartment,42.3524955861925,-71.06677574766198,94.0,Downtown,3.0634364727701384,0.9667063026063011,0.8866142048298042,0.1884213043591086,4.164730150160711
1616,14216000,0.4595,0.5405,0.0,0.5148833333333334,"Longfellow Place, Lux 1Bd West End/Beacon Hill*",42.36261913112333,-71.06590828345121,100.0,West End,2.889560979815775,1.4418856045701391,1.3653130612273037,0.8767054493526091,3.934021941435278
1254,11521541,0.4589828570999999,0.527344762,0.013686666699999999,0.6020487976,Historic and Charming Brownstone!!,42.381951786916844,-71.06866985363283,88.0,Charlestown,3.2269284206298265,2.566311951773744,2.5049594017163375,2.21664049297295,3.599197563600903
2687,20268369,0.4580416666666667,0.5419583333333333,0.0,0.4496458333333333,Large Private Bedroom Close to Airport,42.37821570520223,-71.03922742772694,100.0,East Boston,1.7485742359172671,3.1629967784957085,3.083856060024742,2.3728758001569767,5.106330090605084
1807,15173640,0.4571486694705883,0.5306423669411764,0.012199159647058824,0.47904717782352946,Calm & Cool|Historic Back Bay Studio Spot,42.349755569656494,-71.090725081045,92.0,Back Bay,4.294516891833605,0.41701577910787185,0.45725492477305574,1.288659979704581,3.2481919955409646
4641,29672850,0.45670833349999995,0.48151388875,0.034,0.5548944445,Luxury Backbay 2 Bedroom Apartment!,42.346835427174064,-71.07929428433195,90.0,Back Bay,3.7956635674067476,0.23429548869621267,0.16641532358875857,0.73490571696975,3.8307271369285827
2701,20351456,0.4565904761428571,0.5409023810000001,0.002507142857142857,0.5030228571428572,Spacious 2-BR near Fenway Park!,42.330834697681375,-71.11277326656003,94.0,Mission Hill,5.801881316315641,1.834415964760589,1.9150215385938636,2.753368083540694,3.6698793657634905
2866,21026932,0.45649999999999996,0.51425,0.02925,0.29825,1 bedroom Apt near Boston medical Center,42.32969387841882,-71.07001602330324,60.0,Roxbury,3.9636465313334206,1.360138367826153,1.3639485347245104,1.4146014434340117,4.967364280345836
2755,20647029,0.45626731604545456,0.5214193723181818,0.007161796545454546,0.533916017318182,Distinctive 2BR in Seaport by Sonder,42.339903666784295,-71.0482798554104,91.0,South Boston,2.658396192177823,1.8776289002322384,1.8229229721363494,1.122690302986312,5.4163305926020575
2328,18613633,0.4560555555,0.5073333335000001,0.036611111,0.260525,Boston - Logan Intl Airport III,42.388483496611904,-71.0021227970042,80.0,East Boston,1.6251626606100253,5.088142663895747,5.007439266904329,4.198294276825671,7.025075276472264
4829,30733110,0.456,0.544,0.0,0.59565,Artistic Condo in Fort Hill,42.32424243987542,-71.08956041015693,100.0,Roxbury,4.991053490966299,1.5649260633399427,1.621257554303334,2.156871252251986,4.624277746292798
4684,29857569,0.45583333333333337,0.5426000000000001,0.0015666666666666667,0.7303099999999999,"Private room-A with 2 beds in Boston, MA",42.34999689888231,-71.16481352602385,100.0,Brighton,8.018292811424262,4.152242049999341,4.21806393491513,5.081793001631972,2.476363707531393
4345,28343836,0.45575,0.54425,0.0,0.8263750000000001,Private Bedroom in Updated Southie Condo,42.333841987626585,-71.03118944100018,100.0,South Boston,2.4549224549421127,2.8348805939334607,2.784039919417716,2.0804193374457065,6.38259650077415
4548,29216550,0.45489523814285715,0.5451047618571428,0.0,0.5045680952857143,ROOM B,42.272441159034024,-71.14907121338554,97.0,West Roxbury,9.611628553458127,6.107766140007774,6.181405234541684,6.848577226830067,7.464412327506473
3322,22747037,0.45487142840000006,0.5418428572,0.0032857142,0.5997561906,First-floor room in beautiful Lower Allston house,42.36126231480279,-71.12986138856027,90.0,Allston,6.16310793804663,2.566038752760706,2.612313176640879,3.383822033421136,1.3960265984219815
3204,22175736,0.4544999999375,0.49840625006250006,0.01584375,0.477892708375,Stunning 2BR in South End by Sonder,42.33684025744774,-71.06822112176255,85.0,South End,3.598305058710025,1.0423262514807825,1.0205892150884683,0.9130439489695126,4.7038325701053765
4187,27509899,0.4541666665,0.5458333335000001,0.0,0.6463333335000001,Lg house 18H rental new and spacious near Harvard,42.358787966280545,-71.1349418344609,80.0,Allston,6.4332155307710295,2.7494186528829214,2.801639412019457,3.6045202154112093,1.5008991584830802
4761,30296709,0.4541045454545454,0.5348227272727274,0.01105,0.5379103030000001,Private Room in Beautiful Dorchester Condo,42.299017816002944,-71.0558499495438,98.0,Dorchester,5.170089915313482,3.578372769123443,3.5915631091455853,3.5483502070928044,7.043554222683768
1724,14819274,0.45389333340000004,0.5461066666000001,0.0,0.5787546666,"South End, Penthouse, Roof Deck w/Amazing Views!",42.34503080856176,-71.07340513211166,96.0,South End,3.5616183329548456,0.5445283799039307,0.4888351760750802,0.5247709271390049,4.1471276578071095
3311,22687587,0.45388766784615375,0.5373741147692308,0.008749206307692308,0.4927283760769231,2 Bed 2 Bath Luxury Apartment in Fenway Park 501,42.34446827504107,-71.0953811374346,98.0,Fenway,4.627354463726497,0.607095028485619,0.6839960981257864,1.5727336851636233,3.3322977412874626
1652,14423483,0.45384375000000005,0.5379955357499999,0.008160714250000001,0.35574151787499997,Beautiful 2-BR Condo 0.5 Mile to Boston Common!,42.36428350076047,-71.06535458734923,88.0,West End,2.8552935974136107,1.5493389796840904,1.4736657441452192,0.9914518879397496,3.926992678969146
3436,23287586,0.45311111100000007,0.546888889,0.0,0.45113333333333333,"Beautiful View of Charles River, Convenient Loc.",42.363963568814285,-71.0677728733562,93.0,West End,2.979778450625327,1.4586523468937154,1.3848114755958776,0.9759367736619234,3.814895827693587
2682,20237145,0.4530033182352941,0.5441731522941177,0.002823529411764706,0.5450534765882353,"Bright and Spacious 3 BedR., 1 bath, 2nd Floor Apt",42.303551035347645,-71.05994069195334,99.0,Dorchester,4.99877157411902,3.2084103973414377,3.2233517691266833,3.2133600373989055,6.667621937926207
1165,10116914,0.45299999999999996,0.4775,0.0695,0.5488,Financial District Boston 1BR Apt. + Pool & Gym,42.352141941032684,-71.06351949861497,100.0,Downtown,2.912295974049128,1.1109652534213272,1.0320745177610384,0.18544792035249355,4.3242325215888995
2158,17609053,0.45274111106666665,0.5105122222666666,0.003413333333333333,0.5516618889333333,⍟ Lofty South End Penthouse w/Street Parking! ⍟,42.34007150279008,-71.07481708081386,100.0,South End,3.7752556390252976,0.6416998617080563,0.627464454390848,0.8288119254051807,4.301700109664899
4671,29819674,0.45274107140000003,0.5316839285999999,0.015625,0.6095576786000001,M2A Spacious Downtown Living!,42.35653143004581,-71.05302873804426,100.0,Downtown,2.309513197123064,1.722729693061753,1.6429399090569112,0.787118343885529,4.695361748677653
4205,27598072,0.4523796296666666,0.538037037,0.009583333333333333,0.5870712963333333,CHARMING 3Beds/1Bath+1 Parking byThe Tstation!,42.34690508908388,-71.13497285140775,78.0,Allston,6.546629562544819,2.6176621059471974,2.6857604896334237,3.560180362376656,2.315907061054583
4738,30197337,0.45228333330000003,0.5367833333,0.010908333400000001,0.5264691667000001,"1-1 Chic, Modern, Hip Studio Awaits Your Stay",42.348701282859395,-71.07009761083201,86.0,Bay Village,3.3093649088826584,0.7200955418835349,0.6449515968035371,0.24727164075633298,4.146420540173082
2775,20710408,0.45200357142857145,0.5430107142857143,0.004997619071428571,0.5794666497142857,"Private 3+ bedroom brand new, close to airport T",42.373031634145505,-71.03317808109684,96.0,East Boston,1.3112725703496235,3.174557185876514,3.0938865553657133,2.30035332598824,5.437409614604688
4762,30296925,0.45155833330000006,0.5484416666999999,0.0,0.577625,Newly Furnished Private Room in Great Location,42.337059028567054,-71.1486887248506,100.0,Brighton,7.388378384350427,3.383602678287291,3.4589824063400956,4.348243062767789,3.027601399504804
3900,25745990,0.4515092592222223,0.5484907407777777,0.0,0.5597268518888889,"*Luxurious apt close 2 BU, BC & HBS. 1min to Train",42.3476716053324,-71.13862261484674,89.0,Allston,6.71992416983514,2.8055117075049343,2.87279394197191,3.7441536008065377,2.2540151537796183
1838,15338096,0.45130112041176473,0.5486988795882354,0.0,0.5195992950588235,Pleasant Studio in Downtown Crossing by Sonder,42.35544650684592,-71.05982233736351,93.0,Downtown,2.6646640500952645,1.3759424232809592,1.2956066473008405,0.4813211044669355,4.400019270102257
4228,27669626,0.4507681975666667,0.5450218024333334,0.00421,0.5696272483000001,"Downtown Boston, Near South Station Bus Terminal",42.350943570126844,-71.06075302392281,92.0,Chinatown,2.8072011897386586,1.2213921084488142,1.1448001316566747,0.2558488000916469,4.487952082807946
2638,19946938,0.45075,0.54925,0.0,0.58324,Cozy & Comfy 2-BR in Boston + Great Amenities,42.3628468708431,-71.0636801191164,100.0,Downtown,2.7746844801137995,1.5286530438172423,1.4508296681375747,0.8973920769565389,4.037841158230786
3695,24369910,0.45072777780000006,0.5408833333333334,0.008388888866666666,0.5366444444666666,Chic North End Loft in Boston's Little Italy,42.364442806996315,-71.05731808392088,88.0,North End,2.443794400395325,1.837362350381626,1.7578596843869134,1.0874919217667247,4.32035613269325
1646,14421692,0.45045833333333335,0.5367083333333333,0.012833333333333334,0.4241555555,Amazing Central Boston 2-BR Condo!,42.36425275901321,-71.05958574525586,93.0,Downtown,2.560254001757146,1.7440560725090457,1.6651942299550655,1.0354119919694313,4.211642259095715
1091,9414160,0.449875,0.550125,0.0,0.6134125,"Beautiful Beacon Hill, Private Room",42.35949686400115,-71.06852165913585,100.0,Beacon Hill,3.0453469089822356,1.191039582834146,1.1137850754109142,0.6782262615511431,3.8817519800380604
2584,19655883,0.4495,0.505833333,0.044666667,0.354016667,Furnished&Stylish 1 BR apt in the heart of Boston!,42.328494050928114,-71.11038478432201,100.0,Jamaica Plain,5.760836238121205,1.842182230942694,1.9217622370478706,2.7306612712749025,3.865343048976691
1066,9197535,0.44925,0.55075,0.0,0.489775,Spacious room in back bay,42.34560256185624,-71.07571070452711,73.0,South End,3.6550692366779933,0.42148381244306143,0.364396632115156,0.5992650390333697,4.028599965463327
3164,21979174,0.44888541668750004,0.5332682291875,0.0178619791875,0.5027869791875,Back Bay Brownstone Oasis|1BR 1BA #5,42.35044173189775,-71.08503171557409,90.0,Back Bay,4.000692221917786,0.2776343352925918,0.2615416320641595,0.9977649473311088,3.446340109481461
3149,21925988,0.44881041675000005,0.5443145832499999,0.006875,0.597920833375,Comfy room 3 min to T stop-easy access to Boston,42.38386335289773,-71.07902057883057,98.0,Charlestown,3.769808135051475,2.589619861898621,2.5408320317585744,2.442105496174592,3.0774238864683237
4439,28722439,0.44863690478571433,0.5401309523571428,0.011214285714285715,0.4782023809285714,Lovely room in Oak square ( FREE PARKING ),42.35520345608583,-71.16530643449755,91.0,Brighton,8.002780258781948,4.213237233289145,4.274880764158404,5.11981946941179,2.196389036162936
2890,21151013,0.44844,0.5315399999999999,0.019980000000000005,0.48025600000000007,Abigayle's Bed and Breakfast  M263 Q4,42.349998385448544,-71.10470354528759,96.0,Fenway,4.986181034257863,1.0944103461979564,1.1528523958829962,2.0042847318223935,2.7310156546389495
4450,28775958,0.44843333329999996,0.5224416667,0.004125,0.5631458333,Beautiful Private Bedroom,42.38054704587703,-71.03032597339411,100.0,East Boston,1.479706293894814,3.6088028499697615,3.5288818577675243,2.7785875734665493,5.559693275462923
4386,28544551,0.4475,0.5329999999999999,0.0195,0.42945,Seaport Luxe Condo 1BD 3,42.35215959116752,-71.04342242117711,100.0,South Boston Waterfront,1.9642641297076924,2.10616800348325,2.031354622225479,1.1436712602896575,5.262854855014161
3796,24871006,0.44743124999999995,0.53672708325,0.015841666625,0.527956875,Spacious 1B1B Apartment,42.34615867146044,-71.14190246323142,95.0,Brighton,6.904638611366166,2.9724450129975852,3.041286241989492,3.9175196018123977,2.36314270539814
2324,18599691,0.4471,0.526,0.0269,0.5121925,Huge Beautiful Recently Renovated Private Room,42.33025602941893,-71.09961932809604,100.0,Mission Hill,5.214760324826889,1.3826092314551621,1.4578825705767324,2.2100932495829957,4.000271556410372
3495,23454978,0.44681666671428566,0.5445642856666666,0.008628571428571426,0.5609896031904762,Architectural 2BR in Fenway by Sonder,42.34342605358479,-71.10157739668438,96.0,Fenway,4.951208209990689,0.9323991365445526,1.0090352877088444,1.8980054392487054,3.1860259957639694
3887,25568854,0.44679166659999997,0.5525749999999999,0.0006333333000000001,0.5583958333000001,LUXURY BEDROOM AND BATHROOM IN SEAPORT BOSTON,42.34855444130027,-71.03793912090481,93.0,South Boston Waterfront,1.8678476704725,2.354844081744149,2.2845055382080304,1.4170841386867548,5.61717144203305
3483,23411464,0.44661111099999995,0.553388889,0.0,0.4455166666666666,Simple Studio in Fenway by Sonder,42.34435742254055,-71.10121715193509,100.0,Fenway,4.914077213745496,0.9016229054962379,0.9765379476953051,1.8657930977465012,3.146157429374462
4502,29009521,0.44632619042857147,0.44324523814285716,0.0032857142857142855,0.483745,Prime Time Pad in Beantown,42.33596600118413,-71.04587111520686,100.0,South Boston,2.7626155310261513,2.076573006699203,2.028889539184291,1.3941175734123503,5.664678771774768
4451,28780605,0.4463,0.5537,0.0,0.5712799999999999,Large room in modern unit close to transportation!,42.34714861631869,-71.16148331055359,87.0,Brighton,7.8789450824103735,3.9751097336526646,4.043048998766111,4.915124265643569,2.5636473915972164
2633,19914995,0.44608677721428575,0.5424076105714285,0.0025770408214285715,0.5426403401428571,Incredible 3brm designer home in Roslindale,42.290725961006366,-71.13302085940167,97.0,Roslindale,8.164782146912861,4.6012907610708575,4.674968609242726,5.351118767574288,6.191923371273272
4787,30472496,0.446,0.5186666666666667,0.035666666666666666,0.5776083333333334,1307 Private room Near BU/BC/Harvard/MIT/Tufts,42.349271526711135,-71.1352073287494,87.0,Allston,6.528107546722519,2.636349792061915,2.7016625756350847,3.566312588581339,2.1521503668146793
4283,28027802,0.4456031745,0.5400111111666667,0.014395238166666666,0.5383937301666667,Boston’s Charlestown Charm - parking space!,42.377359712417494,-71.06020020405994,100.0,Charlestown,2.7139670401179945,2.449028936608053,2.3780043382069986,1.9136857417372597,4.036211478715874
1308,11985521,0.4453333335,0.5546666665,0.0,0.7055333335,Ultra-Modern 1-BR APT near Harvard Medical School!,42.34468694358433,-71.09836458279456,100.0,Fenway,4.767947346827191,0.7538160550399301,0.8288861686667199,1.7181995022069945,3.2204880095105373
37,38578,0.445,0.555,0.0,0.5529833335000001,[1218-1C]1BR - The Towers at Longfellow Place,42.36408963095722,-71.06565400720206,90.0,West End,2.871071080379117,1.5293856208413428,1.4537910438191162,0.9780298333049268,3.916106754209869
3079,21753900,0.44478708329999994,0.5243549999999999,0.014185,0.54676975,Penthouse 1BR in Seaport by Sonder,42.343852829601744,-71.05744794565699,95.0,South Boston,2.8728604224432535,1.3642757426842054,1.3035617561814723,0.5896650956620381,4.873558657757488
1332,12265127,0.4445277778333334,0.5554722221666666,0.0,0.6405069445,"Small Room close to T, Boston College & Brookline",42.3386468181636,-71.14778467130284,97.0,Brighton,7.31505749876304,3.3184634258076526,3.39296083880611,4.281620132664508,2.912024499804947
4525,29082684,0.4444421568823529,0.5490774509411764,0.006480392176470588,0.583027254882353,Chic Downtown Apt ALL Brand New Two Bedrooms!,42.34702637155058,-71.087007738069,82.0,Back Bay,4.1649352548797856,0.16547131490989803,0.2300171508930768,1.1163245402456479,3.515320607048124
4252,27879644,0.4444115384615384,0.5502615384615384,0.0052923076923076925,0.5990400000000001,"Spacious room, near transit, self keyless check-in",42.25124096890587,-71.11739818052546,98.0,Hyde Park,9.633435523893262,6.796973437292585,6.856323315532361,7.310615015509276,8.977982652797893
107,475988,0.4441035498,0.5495554978666668,0.0063409524000000005,0.5781934372666666,"Lovely private, 20 mins to dwntwn, near parks +T!",42.30439627966345,-71.11442053542154,97.0,Jamaica Plain,6.830781229305472,3.3020082006283666,3.3726879535520644,4.01700267994442,5.389523745378162
3017,21563175,0.4440466666,0.4836066668,0.00564,0.607718,Spectacular Boston Condo!,42.34652895166271,-71.07792517313824,80.0,Back Bay,3.737264000710911,0.3033573419861793,0.23894422711324365,0.6751628310579822,3.899463504163329
955,8164146,0.4435,0.5565,0.0,0.6741,Furnished 2-BR Apartment near Boston University,42.34340237726134,-71.09945478281419,100.0,Fenway,4.848497681218875,0.8273950744544967,0.9048124855214109,1.7929934582283087,3.253741589729278
3488,23414294,0.443058212875,0.5490727395,0.007869047624999998,0.5650726155178573,Grey Room*NO Cleaning Fee*JFK/UMass T Red Line,42.32362072207502,-71.06109335028249,95.0,Dorchester,3.917525794600786,1.963504882291406,1.959504809934152,1.8295521959540098,5.587077666145818
3043,21657768,0.44299999999999995,0.557,0.0,0.9138,Stylin in Seaport,42.34957801817218,-71.04949125897177,100.0,South Boston Waterfront,2.322315659602433,1.771803577942389,1.69927914092362,0.8228245700307726,5.047894732123812
288,2141306,0.4428714287142857,0.5465857141428572,0.010542857142857144,0.5439209522857142,Modern 2Bd1BA in Downtown Boston,42.35446610698164,-71.06010984621163,97.0,Downtown,2.697379105695554,1.333566208113538,1.25365079075986,0.41976270539998517,4.413434910136298
4347,28347870,0.4428333335,0.5571666665,0.0,0.5795666665,Boston Home with a view of park 204,42.31741416976685,-71.091520215148,87.0,Roxbury,5.3532314279022595,2.0467077958735773,2.103089362432015,2.608022402016297,4.975743041436929
2079,17024774,0.44278124999999996,0.556916666625,0.0003125,0.6250212798125001,Beautiful Beacon Hill Apartment with Roof Deck,42.35930718818521,-71.06663124959991,100.0,Beacon Hill,2.9514441344356923,1.2476183894103117,1.1689420252034546,0.6502568300903739,3.9765499435999767
3363,23017803,0.4423095238125,0.5328102678125,0.009255208374999999,0.5342123512500001,2 Bed - Modern - Clean living space Prudential #16,42.34579444246754,-71.0867427147097,94.0,Back Bay,4.179101920687183,0.1562594352588404,0.23548567598701903,1.121506476529666,3.5816304438754525
4484,28938230,0.4419017007142857,0.5475544217142858,0.01054387757142857,0.5141927211428572,Large light bedroom right on Oak Square,42.35210706320807,-71.16539504498691,97.0,Brighton,8.02946725779833,4.192786140269784,4.25697520175621,5.113705937584288,2.3713607498532814
4016,26444145,0.4415,0.5585,0.0,0.5950285715,Fort Hill Gem- close to public transportation,42.32528309153905,-71.09785564099687,100.0,Roxbury,5.306938789324336,1.6316232212292754,1.701001342301233,2.372207614246357,4.343356449414812
4197,27571301,0.44138846153846156,0.5414769230769232,0.017211538461538462,0.4782469230769231,Stunning 3BR in South End by Sonder,42.34494313198928,-71.06608824698127,92.0,South End,3.2242216707020668,0.9158846983011579,0.8548167995629216,0.34459228004199516,4.45897391241863
1418,13024385,0.44131135265217386,0.5525669082173913,0.0060999999999999995,0.49906297104347824,Unique 2BR in Downtown Crossing by Sonder,42.35124844173521,-71.06206122096026,92.0,Chinatown,2.862415327209198,1.1623997717316723,1.085015289533094,0.20105018824345713,4.418715957486092
2400,18945236,0.44116666660000003,0.5469666666,0.011866666599999999,0.5385216668,Phenomenal Boston 2BR Condo!,42.34648113963157,-71.07979714286311,76.0,Back Bay,3.828241311533283,0.20752365807873233,0.1466085252914824,0.7667996857525841,3.825125964701073
3505,23500329,0.4408571429,0.5552214285000001,0.0039071429,0.5493910715,Pleasant 1BR in Fenway by Sonder,42.34250908452115,-71.10152412936607,96.0,Fenway,4.968586206012357,0.9462761967819417,1.0243684123872503,1.9113252214828353,3.238466899820537
2242,18193552,0.44051289679166655,0.5426054894583335,0.01688161375,0.53323053075,Serene 1BR in Seaport by Sonder,42.339723386074574,-71.04838156475627,92.0,South Boston,2.6705852069677314,1.8756517350912107,1.8213770041904103,1.126325744318793,5.418300053381221
4809,30505411,0.4404166666666667,0.5595833333333334,0.0,0.5346000000000001,Airy Studio in Downtown Crossing by Sonder,42.351974149700524,-71.06362637351988,100.0,Downtown,2.921193253150688,1.1018281082568449,1.0230873177803568,0.17280553782920316,4.324580739139346
3276,22512206,0.440072916625,0.559927083375,0.0,0.54786354175,Charles Street Studio Apartment,42.358170450998884,-71.06979254714474,100.0,Beacon Hill,3.123539449991492,1.0793655693747632,1.0018825836568572,0.6093673627303745,3.856819703140915
4667,29796702,0.439875,0.560125,0.0,0.4274375,"Private master bedroom-M, full bath, Boston, MA",42.350477396420644,-71.1657525363342,100.0,Brighton,8.0615379867559,4.202250776817125,4.2677323455895175,5.129990436639918,2.474686772136567
4242,27734523,0.43986309524999995,0.49113690475,0.06898214287500001,0.38876755949999997,Boston Room (3-1),42.314315365963935,-71.10132639653979,93.0,Jamaica Plain,5.881435815071481,2.3959936375229627,2.4620691595644146,3.065143503010081,4.947133585317575
3722,24515565,0.43941666675,0.56058333325,0.0,0.57095,A place to call Home steps to T w/free pkrg.,42.29678553328161,-71.07827415437858,95.0,Dorchester,5.910082092386655,3.444338718342089,3.4825448198666606,3.724832356930602,6.5504943201772265
3460,23321961,0.43862999999999996,0.5576099999999999,0.0037600000000000003,0.607128,Elegant 2BR in Fenway by Sonder,42.34461328793108,-71.10246200965338,100.0,Fenway,4.969754567509226,0.9619714205195324,1.0359803162235015,1.9247683371815134,3.0933300474085557
1727,14824684,0.4384952380714286,0.5592011905,0.0023035714285714287,0.5279043452142856,Abigayle's Bed and Breakfast 4A M263 King/Singles,42.350122043850334,-71.10239512043519,99.0,Fenway,4.868980206850163,0.9815786110081148,1.0382553516169084,1.8861403191788826,2.802004277967105
2829,20895262,0.43793128652631585,0.5425046783684211,0.019548245631578948,0.5306903801052633,Fabulous Studio,42.34649595530845,-71.14037550429812,86.0,Brighton,6.8234214985327855,2.89415350281245,2.962674596947878,3.838001241643202,2.3361986715524
3510,23503374,0.437388889,0.5626111109999999,0.0,0.4919666666666667,Sunny Studio in Fenway by Sonder,42.34247780023123,-71.10169044050815,93.0,Fenway,4.977344330147855,0.955051322703336,1.033132796065166,1.920108254095512,3.2351789740911197
4344,28341833,0.43736025646153853,0.5358705127692307,0.026769230769230767,0.530949423076923,Comfy Spacious Room Near Harvard BS,42.362512691853816,-71.13094029605216,98.0,Allston,6.214650461622037,2.6515725289122227,2.6963894365759584,3.458224011140841,1.2964440314906285
3504,23498826,0.436875,0.563125,0.0,0.5478625,Spacious 2BR in Fenway by Sonder,42.34406474182753,-71.10158755547745,75.0,Fenway,4.938232574168431,0.9238203134637081,0.9992407588436651,1.8885798431696812,3.150574233154155
2820,20861260,0.43682892856666666,0.5428993650666668,0.009160595233333334,0.5168576507666668,Stayloom’s Luminous Linwood Home | near T,42.329135005240744,-71.09506593248629,98.0,Roxbury,5.048061127373849,1.3300654623136137,1.3992074790032316,2.08363975758741,4.187670845003761
3390,23121785,0.436642963,0.5537892592666667,0.009571481466666667,0.5151018888666667,Bold Studio in Downtown Crossing by Sonder,42.351626329531655,-71.06366596459424,83.0,Downtown,2.9309315764224166,1.0919364952065858,1.0135884061357368,0.15242770929997182,4.333704436323157
2399,18944289,0.4360251971388888,0.5569529191111111,0.0070195495,0.5129957387222223,Frugal Stay Y,42.36185765277615,-71.14454645907388,92.0,Brighton,6.912312834739647,3.282803861058989,3.3339701130575445,4.12686769886305,1.3063540589064286
846,7474855,0.43574607501818197,0.5358436724363635,0.014786767672727274,0.48041005338181814,Stylish & Comfortable Newbury St Studio .#11,42.34950979261725,-71.08205049512304,95.0,Back Bay,3.8715823079406677,0.2262469257323133,0.16510488969157658,0.8449635291488726,3.6073211465623047
4299,28099312,0.4356573128571429,0.5561454081428571,0.008217687142857142,0.5237523808571428,Copley Condos 1BD,42.34618327632803,-71.07901574909415,83.0,Back Bay,3.7979299133715863,0.24858140992571012,0.19116184230404815,0.7358163379752918,3.869367778264505
2562,19567173,0.43549404757142857,0.551684523857143,0.01282142857142857,0.5392972618571428,Fenway Hideaway,42.342073781618375,-71.0892498886496,94.0,Fenway,4.389098071828327,0.4128629261798376,0.4911530069805031,1.328547194533433,3.667274622475318
1311,12023820,0.435,0.565,0.0,0.53265,Cute bedroom in Boston,42.35316407075121,-71.1465614145791,80.0,Brighton,7.063455000654179,3.243331053332023,3.3051189159472796,4.153254170166825,1.9146857156646937
4739,30198849,0.4344858585454545,0.5542565657272728,0.011257575727272727,0.5253360605454546,"1-2 Chic, Modern, Hip Studio Awaits Your Stay",42.34895997106025,-71.0685858577496,95.0,Bay Village,3.230659448130107,0.799519580243205,0.7242604203744671,0.1686839184579959,4.20317619075246
3700,24372774,0.43380952385714283,0.5634698412857142,0.002720634857142857,0.5926377778571429,Private room with comfortable queen bed,42.27820055761661,-71.12532556199666,89.0,Roslindale,8.457325963957015,5.171839804006783,5.239512998435482,5.820576004944088,7.08349506112264
905,7837202,0.4337801213018869,0.5553211815094339,0.006181716094339622,0.5085041756981132,Charming & Stylish Studio on Beacon Hill #15,42.360992316310345,-71.0644434563225,94.0,Beacon Hill,2.8252407663041708,1.4090585098941266,1.3304052922523208,0.7663531247909121,4.041075990834685
670,6027467,0.433588889,0.566411111,0.0,0.5251766666666667,Lavishly plush 1BR apt in Boston's Fenway!,42.34433172722542,-71.10097607447086,100.0,Fenway,4.902830684078604,0.8897503344462983,0.9647944167885704,1.854084262817027,3.155148935104444
2545,19522209,0.4333976851111111,0.546588426,0.008902777777777779,0.5657441203888889,Bright 1BR in Back Bay by Sonder,42.3425986281408,-71.08278011217308,91.0,Back Bay,4.068934675214205,0.27587803201748584,0.31394817821252563,1.0164142185452134,3.8799897149248848
3429,23272728,0.43334523814285714,0.5500119047142857,0.016642857142857143,0.5551689285714285,"Clean, cozy, and conveniently located!",42.33890143104119,-71.10829905151526,100.0,Longwood Medical Area,5.378551499908315,1.357736163374698,1.437432207658168,2.3169284704729565,3.261983914263966
2543,19507888,0.4329623808,0.5024757141999999,0.024495238000000003,0.5721459047999999,Winter at The Heart of Boston,42.34648598684693,-71.08870799221542,96.0,Fenway,4.259256272085441,0.2487419215434939,0.3201591514523347,1.2088343460628541,3.4749092048275307
4398,28583454,0.43258333333333326,0.5674166666666667,0.0,0.5049916666666666,Beautiful brand new bedroom in the mid of Boston 6,42.35217193370161,-71.13326595063809,87.0,Allston,6.39804464203248,2.5599652678985656,2.6212910906132523,3.470039593998227,1.9651329041776857
4690,29881646,0.4325,0.5675,0.0,0.7039,Comfy room (A) near T and downtown Boston,42.34027111164613,-71.0487843432428,100.0,South Boston,2.660955383508564,1.84649321596246,1.7912079166816306,1.0867260591832366,5.381126512169691
760,6793913,0.43249999999999994,0.5675,0.0,0.7167499999999999,#Luxury Furnished 2BR Apt in Boston's Fenway Area,42.34330543250397,-71.10148920547795,80.0,Fenway,4.949501005413061,0.9299533577102156,1.0068278438063392,1.8956076392530654,3.1953950786875502
944,8063870,0.43220833333333336,0.5393333333333333,0.028458333333333335,0.42222083333333327,Lux 1 Bedroom by Fenway with washer/dryer & WIFI,42.345377547846496,-71.10001766211451,80.0,Fenway,4.834670485070819,0.8315262867308877,0.9042489500609232,1.7920735977723397,3.1296420949679415
4669,29800537,0.4320833333333334,0.5679166666666666,0.0,0.6434,"Private room-E with 2 full size beds in Boston, MA",42.350518542169596,-71.1657060031007,93.0,Brighton,8.05880602742875,4.200057844699751,4.265506153204105,5.127628525642773,2.471002731950441
3095,21798943,0.43207062449999994,0.5544012427105264,0.010607915605263156,0.4968450417368421,Furnished one Bedroom Mission Hill Apartment,42.33179170889668,-71.09797540552171,98.0,Mission Hill,5.0910251164284555,1.2474165462736932,1.322574108586213,2.0787943760357788,3.9530772050240515
4459,28826768,0.43200000000000005,0.568,0.0,0.9287,"Sleek + Bright 1BR, Back Bay, Gym, near Newbury by Blueground",42.3491759662191,-71.07388023473929,100.0,Back Bay,3.4804264802547173,0.5424630802152206,0.46397616899287814,0.4292701650419254,3.9652380112642094
1644,14421304,0.43196031742857144,0.5073900226428572,0.024935374142857143,0.4083523242857143,Amazing 2-BR Boston Condo Sleeps 5!,42.36471355463015,-71.06062807787244,94.0,Downtown,2.612624440425834,1.7294179956799651,1.6512279383327606,1.051783181155815,4.151820756269182
4692,29901892,0.4319283333,0.5651516667,0.00292,0.4162516665999999,Karlie’s Place #1,42.274417059533405,-71.09430550490907,100.0,Mattapan,7.644252598791622,5.005119874502427,5.055845665817584,5.415446812045079,7.659648144009386
809,7093184,0.43188095242857144,0.5601666667142856,0.007952381,0.439552381,Easy to downtown/Longwood Free Parking Clean House,42.317042832899936,-71.07978770406389,94.0,Roxbury,4.914180531745894,2.0448996670898176,2.0822661346795353,2.383408757654384,5.316085591638681
3651,24152390,0.43112500000000004,0.568875,0.0,0.5683874999999999,Cozy and beautiful Private room . 1 Queen Bed,42.29806720817616,-71.06348341676023,95.0,Dorchester,5.416826535181896,3.5029517205068137,3.5248093459165153,3.580539266562287,6.8686255371436795
256,1867834,0.43095,0.563425,0.005625,0.6059568750000001,Lux 2 Bedroom Apt Near Waterfront w/wifi,42.364485054222506,-71.06900010852367,100.0,West End,3.0414154099722728,1.4547090945187209,1.3826313103694974,1.0206535808710477,3.7442644171431247
4032,26452903,0.4308333334,0.5691666666,0.0,0.5290066666000001,"Clean Very Private Top Floor cold AC, Parking 7/11",42.348760563144715,-71.16394707787829,68.0,Brighton,7.9863908731423106,4.103889089690248,4.170636041666184,5.038114771929814,2.5261850164659463
1713,14744481,0.4307607179200001,0.55535097436,0.01384830768,0.4849872666800001,Bright Studio in Downtown Crossing by Sonder,42.35391620288323,-71.05908380284652,90.0,Downtown,2.658352782614923,1.366987396184977,1.2876388403960202,0.43113228556585564,4.476852272667508
1830,15284277,0.4303333333333333,0.5332,0.03646666666666667,0.51299,Bluebird China Town 2-BR + Magnificent City Views,42.34861963132317,-71.06098431689938,100.0,Chinatown,2.8797646231817917,1.1796919623342994,1.1072194617823057,0.25068230905851896,4.55236244318107
3127,21838021,0.43018650795238095,0.5470611111428573,0.01957777780952381,0.4208087300952381,Modern 2BR in Lower Allston by Sonder,42.35756591986208,-71.13526982928727,94.0,Allston,6.456719021440318,2.740763975303303,2.7948639672389444,3.6078034255450415,1.5823935320632507
4332,28302081,0.43000000000000005,0.5434166667500001,0.02658333325,0.43199999975000003,La Casa Boheme 2,42.318772451261815,-71.08946586722674,85.0,Roxbury,5.212529964641933,1.936385335085643,1.990249239009311,2.4740958357788463,4.947178820289521
2864,21025191,0.429692857095238,0.5643649660476191,0.005942176857142857,0.45911794780952375,Private room in Hyde park  Accessible to downtown.,42.27235667457599,-71.10829243413644,93.0,Hyde Park,8.183885917718163,5.26953004608331,5.328075713979489,5.7839157910076535,7.616127566428876
830,7298966,0.4290904762,0.5709095237999999,0.0,0.6746414286,"Spacious, Quiet, Sunny studio directly on the T",42.34187803841465,-71.14320857308776,92.0,Brighton,7.0333241854465784,3.056131980845784,3.1286824924706726,4.014474343671356,2.6626825551905555
4405,28610562,0.4289950980588235,0.5635343137058824,0.007382352941176471,0.570725,Apartment near BC w/ 1 parking and key-less entry,42.34703770401798,-71.16605767984719,96.0,Brighton,8.111341399195314,4.20923794519365,4.277268056476163,5.14945347175613,2.6836344362321554
2617,19827018,0.42887222222222227,0.5631092592777778,0.008009259277777778,0.5260330554999999,Modern 2BR in Downtown Crossing by Sonder,42.357471932269505,-71.06078072940922,97.0,Downtown,2.6792663439495326,1.4024083543631025,1.3216378025181563,0.5757314128974999,4.301628825952496
4233,27718890,0.42886366840740736,0.5643750147407407,0.006761316888888889,0.510956067037037,Cozy & Quiet Hideout in City Central / Back Bay,42.34390613811933,-71.08233424743678,97.0,Back Bay,4.013355752504822,0.1961448155810827,0.2236124071433294,0.954082526580143,3.837197135983763
